{
    "getAllMountains": [
  {
      "id": 1,
      "name": "A' Bhuidheanach Bheag",
      "imageUrl": "https://picsum.photos/200",
      "createdAt": "2021-06-28T10:58:52.105Z",
      "updatedAt": "2021-06-28T10:58:52.105Z",
      "Peak": {
          "latitude": 56.87034,
          "longitude": -4.199,
          "elevation": 936.1
      },
      "Statuses": [
          {
              "climbed": false,
              "wishlist": false
          }
      ]
  },
  {
      "id": 2,
      "name": "A' Chailleach",
      "imageUrl": "https://picsum.photos/200",
      "createdAt": "2021-06-28T10:58:52.105Z",
      "updatedAt": "2021-06-28T10:58:52.105Z",
      "Peak": {
          "latitude": 57.69377,
          "longitude": -5.12871,
          "elevation": 998.6
      },
      "Statuses": [
          {
              "climbed": false,
              "wishlist": false
          }
      ]
  },
  {
      "id": 3,
      "name": "A' Chailleach",
      "imageUrl": "https://picsum.photos/200",
      "createdAt": "2021-06-28T10:58:52.105Z",
      "updatedAt": "2021-06-28T10:58:52.105Z",
      "Peak": {
          "latitude": 57.10956,
          "longitude": -4.17929,
          "elevation": 929.3
      },
      "Statuses": [
          {
              "climbed": false,
              "wishlist": false
          }
      ]
  },
  {
      "id": 4,
      "name": "A' Chraileag (A' Chralaig)",
      "imageUrl": "https://picsum.photos/200",
      "createdAt": "2021-06-28T10:58:52.105Z",
      "updatedAt": "2021-06-28T10:58:52.105Z",
      "Peak": {
          "latitude": 57.18419,
          "longitude": -5.15484,
          "elevation": 1120
      },
      "Statuses": [
          {
              "climbed": false,
              "wishlist": false
          }
      ]
  },
  {
      "id": 5,
      "name": "A' Ghlas-bheinn",
      "imageUrl": "https://picsum.photos/200",
      "createdAt": "2021-06-28T10:58:52.105Z",
      "updatedAt": "2021-06-28T10:58:52.105Z",
      "Peak": {
          "latitude": 57.25508,
          "longitude": -5.30369,
          "elevation": 918
      },
      "Statuses": [
          {
              "climbed": false,
              "wishlist": false
          }
      ]
  },
  {
      "id": 6,
      "name": "A' Mhaighdean",
      "imageUrl": "https://picsum.photos/200",
      "createdAt": "2021-06-28T10:58:52.105Z",
      "updatedAt": "2021-06-28T10:58:52.105Z",
      "Peak": {
          "latitude": 57.71965,
          "longitude": -5.34672,
          "elevation": 967
      },
      "Statuses": [
          {
              "climbed": false,
              "wishlist": false
          }
      ]
  },
  {
      "id": 7,
      "name": "A' Mharconaich",
      "imageUrl": "https://picsum.photos/200",
      "createdAt": "2021-06-28T10:58:52.105Z",
      "updatedAt": "2021-06-28T10:58:52.105Z",
      "Peak": {
          "latitude": 56.857,
          "longitude": -4.29067,
          "elevation": 973.2
      },
      "Statuses": [
          {
              "climbed": false,
              "wishlist": false
          }
      ]
  },
  {
      "id": 8,
      "name": "Am Basteir",
      "imageUrl": "https://picsum.photos/200",
      "createdAt": "2021-06-28T10:58:52.105Z",
      "updatedAt": "2021-06-28T10:58:52.105Z",
      "Peak": {
          "latitude": 57.24794,
          "longitude": -6.20297,
          "elevation": 934
      },
      "Statuses": [
          {
              "climbed": false,
              "wishlist": false
          }
      ]
  },
  {
      "id": 9,
      "name": "Am Bodach",
      "imageUrl": "https://picsum.photos/200",
      "createdAt": "2021-06-28T10:58:52.105Z",
      "updatedAt": "2021-06-28T10:58:52.105Z",
      "Peak": {
          "latitude": 56.74173,
          "longitude": -4.98339,
          "elevation": 1031.8
      },
      "Statuses": [
          {
              "climbed": false,
              "wishlist": false
          }
      ]
  },
  {
      "id": 10,
      "name": "Am Faochagach",
      "imageUrl": "https://picsum.photos/200",
      "createdAt": "2021-06-28T10:58:52.105Z",
      "updatedAt": "2021-06-28T10:58:52.105Z",
      "Peak": {
          "latitude": 57.7718,
          "longitude": -4.8539,
          "elevation": 953
      },
      "Statuses": [
          {
              "climbed": false,
              "wishlist": false
          }
      ]
  },
  {
      "id": 11,
      "name": "An Caisteal",
      "imageUrl": "https://picsum.photos/200",
      "createdAt": "2021-06-28T10:58:52.105Z",
      "updatedAt": "2021-06-28T10:58:52.105Z",
      "Peak": {
          "latitude": 56.3386,
          "longitude": -4.62437,
          "elevation": 995.9
      },
      "Statuses": [
          {
              "climbed": false,
              "wishlist": false
          }
      ]
  },
  {
      "id": 12,
      "name": "An Coileachan",
      "imageUrl": "https://picsum.photos/200",
      "createdAt": "2021-06-28T10:58:52.105Z",
      "updatedAt": "2021-06-28T10:58:52.105Z",
      "Peak": {
          "latitude": 57.66763,
          "longitude": -4.9495,
          "elevation": 924
      },
      "Statuses": [
          {
              "climbed": false,
              "wishlist": false
          }
      ]
  },
  {
      "id": 13,
      "name": "An Gearanach",
      "imageUrl": "https://picsum.photos/200",
      "createdAt": "2021-06-28T10:58:52.105Z",
      "updatedAt": "2021-06-28T10:58:52.105Z",
      "Peak": {
          "latitude": 56.75917,
          "longitude": -4.96623,
          "elevation": 981.5
      },
      "Statuses": [
          {
              "climbed": false,
              "wishlist": false
          }
      ]
  },
  {
      "id": 14,
      "name": "An Riabhachan",
      "imageUrl": "https://picsum.photos/200",
      "createdAt": "2021-06-28T10:58:52.105Z",
      "updatedAt": "2021-06-28T10:58:52.105Z",
      "Peak": {
          "latitude": 57.36244,
          "longitude": -5.10473,
          "elevation": 1129
      },
      "Statuses": [
          {
              "climbed": false,
              "wishlist": false
          }
      ]
  },
  {
      "id": 15,
      "name": "An Sgarsoch",
      "imageUrl": "https://picsum.photos/200",
      "createdAt": "2021-06-28T10:58:52.105Z",
      "updatedAt": "2021-06-28T10:58:52.105Z",
      "Peak": {
          "latitude": 56.93211,
          "longitude": -3.75429,
          "elevation": 1006.5
      },
      "Statuses": [
          {
              "climbed": false,
              "wishlist": false
          }
      ]
  },
  {
      "id": 16,
      "name": "An Socach",
      "imageUrl": "https://picsum.photos/200",
      "createdAt": "2021-06-28T10:58:52.105Z",
      "updatedAt": "2021-06-28T10:58:52.105Z",
      "Peak": {
          "latitude": 57.35023,
          "longitude": -5.1586,
          "elevation": 1069
      },
      "Statuses": [
          {
              "climbed": false,
              "wishlist": false
          }
      ]
  },
  {
      "id": 17,
      "name": "An Socach",
      "imageUrl": "https://picsum.photos/200",
      "createdAt": "2021-06-28T10:58:52.105Z",
      "updatedAt": "2021-06-28T10:58:52.105Z",
      "Peak": {
          "latitude": 56.9023,
          "longitude": -3.51317,
          "elevation": 944
      },
      "Statuses": [
          {
              "climbed": false,
              "wishlist": false
          }
      ]
  },
  {
      "id": 18,
      "name": "An Socach",
      "imageUrl": "https://picsum.photos/200",
      "createdAt": "2021-06-28T10:58:52.105Z",
      "updatedAt": "2021-06-28T10:58:52.105Z",
      "Peak": {
          "latitude": 57.25755,
          "longitude": -5.17131,
          "elevation": 919.7
      },
      "Statuses": [
          {
              "climbed": false,
              "wishlist": false
          }
      ]
  },
  {
      "id": 19,
      "name": "An Stuc",
      "imageUrl": "https://picsum.photos/200",
      "createdAt": "2021-06-28T10:58:52.105Z",
      "updatedAt": "2021-06-28T10:58:52.105Z",
      "Peak": {
          "latitude": 56.56009,
          "longitude": -4.21627,
          "elevation": 1117.1
      },
      "Statuses": [
          {
              "climbed": false,
              "wishlist": false
          }
      ]
  },
  {
      "id": 20,
      "name": "An Teallach-Bidein a' Ghlas Thuill",
      "imageUrl": "https://picsum.photos/200",
      "createdAt": "2021-06-28T10:58:52.105Z",
      "updatedAt": "2021-06-28T10:58:52.105Z",
      "Peak": {
          "latitude": 57.8071,
          "longitude": -5.25177,
          "elevation": 1062.5
      },
      "Statuses": [
          {
              "climbed": false,
              "wishlist": false
          }
      ]
  },
  {
      "id": 21,
      "name": "An Teallach-Sgurr Fiona",
      "imageUrl": "https://picsum.photos/200",
      "createdAt": "2021-06-28T10:58:52.105Z",
      "updatedAt": "2021-06-28T10:58:52.105Z",
      "Peak": {
          "latitude": 57.80073,
          "longitude": -5.25944,
          "elevation": 1058.7
      },
      "Statuses": [
          {
              "climbed": false,
              "wishlist": false
          }
      ]
  },
  {
      "id": 22,
      "name": "Aonach air Chrith",
      "imageUrl": "https://picsum.photos/200",
      "createdAt": "2021-06-28T10:58:52.105Z",
      "updatedAt": "2021-06-28T10:58:52.105Z",
      "Peak": {
          "latitude": 57.12464,
          "longitude": -5.22129,
          "elevation": 1019.5
      },
      "Statuses": [
          {
              "climbed": false,
              "wishlist": false
          }
      ]
  },
  {
      "id": 23,
      "name": "Aonach Beag",
      "imageUrl": "https://picsum.photos/200",
      "createdAt": "2021-06-28T10:58:52.105Z",
      "updatedAt": "2021-06-28T10:58:52.105Z",
      "Peak": {
          "latitude": 56.8,
          "longitude": -4.95412,
          "elevation": 1234
      },
      "Statuses": [
          {
              "climbed": false,
              "wishlist": false
          }
      ]
  },
  {
      "id": 24,
      "name": "Aonach Beag",
      "imageUrl": "https://picsum.photos/200",
      "createdAt": "2021-06-28T10:58:52.105Z",
      "updatedAt": "2021-06-28T10:58:52.105Z",
      "Peak": {
          "latitude": 56.8335,
          "longitude": -4.52918,
          "elevation": 1115.8
      },
      "Statuses": [
          {
              "climbed": false,
              "wishlist": false
          }
      ]
  },
  {
      "id": 25,
      "name": "Aonach Eagach-Meall Dearg",
      "imageUrl": "https://picsum.photos/200",
      "createdAt": "2021-06-28T10:58:52.105Z",
      "updatedAt": "2021-06-28T10:58:52.105Z",
      "Peak": {
          "latitude": 56.68072,
          "longitude": -5.00327,
          "elevation": 952.3
      },
      "Statuses": [
          {
              "climbed": false,
              "wishlist": false
          }
      ]
  },
  {
      "id": 26,
      "name": "Aonach Eagach-Sgorr nam Fiannaidh",
      "imageUrl": "https://picsum.photos/200",
      "createdAt": "2021-06-28T10:58:52.105Z",
      "updatedAt": "2021-06-28T10:58:52.105Z",
      "Peak": {
          "latitude": 56.67937,
          "longitude": -5.03713,
          "elevation": 967.7
      },
      "Statuses": [
          {
              "climbed": false,
              "wishlist": false
          }
      ]
  },
  {
      "id": 27,
      "name": "Aonach Meadhoin",
      "imageUrl": "https://picsum.photos/200",
      "createdAt": "2021-06-28T10:58:52.105Z",
      "updatedAt": "2021-06-28T10:58:52.105Z",
      "Peak": {
          "latitude": 57.17303,
          "longitude": -5.22917,
          "elevation": 1001
      },
      "Statuses": [
          {
              "climbed": false,
              "wishlist": false
          }
      ]
  },
  {
      "id": 28,
      "name": "Aonach Mor",
      "imageUrl": "https://picsum.photos/200",
      "createdAt": "2021-06-28T10:58:52.105Z",
      "updatedAt": "2021-06-28T10:58:52.105Z",
      "Peak": {
          "latitude": 56.81294,
          "longitude": -4.96171,
          "elevation": 1220.4
      },
      "Statuses": [
          {
              "climbed": false,
              "wishlist": false
          }
      ]
  },
  {
      "id": 29,
      "name": "Beinn a' Bheithir-Sgorr Dhearg",
      "imageUrl": "https://picsum.photos/200",
      "createdAt": "2021-06-28T10:58:52.105Z",
      "updatedAt": "2021-06-28T10:58:52.105Z",
      "Peak": {
          "latitude": 56.65392,
          "longitude": -5.17151,
          "elevation": 1024
      },
      "Statuses": [
          {
              "climbed": false,
              "wishlist": false
          }
      ]
  },
  {
      "id": 30,
      "name": "Beinn a' Bheithir-Sgorr Dhonuill",
      "imageUrl": "https://picsum.photos/200",
      "createdAt": "2021-06-28T10:58:52.105Z",
      "updatedAt": "2021-06-28T10:58:52.105Z",
      "Peak": {
          "latitude": 56.6505,
          "longitude": -5.19776,
          "elevation": 1001
      },
      "Statuses": [
          {
              "climbed": false,
              "wishlist": false
          }
      ]
  },
  {
      "id": 31,
      "name": "Beinn a' Bhuird (Beinn a' Bhuird North Top)",
      "imageUrl": "https://picsum.photos/200",
      "createdAt": "2021-06-28T10:58:52.105Z",
      "updatedAt": "2021-06-28T10:58:52.105Z",
      "Peak": {
          "latitude": 57.08759,
          "longitude": -3.49937,
          "elevation": 1197
      },
      "Statuses": [
          {
              "climbed": false,
              "wishlist": false
          }
      ]
  },
  {
      "id": 32,
      "name": "Beinn a' Chaorainn",
      "imageUrl": "https://picsum.photos/200",
      "createdAt": "2021-06-28T10:58:52.105Z",
      "updatedAt": "2021-06-28T10:58:52.105Z",
      "Peak": {
          "latitude": 57.09327,
          "longitude": -3.57743,
          "elevation": 1083
      },
      "Statuses": [
          {
              "climbed": false,
              "wishlist": false
          }
      ]
  },
  {
      "id": 33,
      "name": "Beinn a' Chaorainn",
      "imageUrl": "https://picsum.photos/200",
      "createdAt": "2021-06-28T10:58:52.105Z",
      "updatedAt": "2021-06-28T10:58:52.105Z",
      "Peak": {
          "latitude": 56.92862,
          "longitude": -4.65364,
          "elevation": 1049.1
      },
      "Statuses": [
          {
              "climbed": false,
              "wishlist": false
          }
      ]
  },
  {
      "id": 34,
      "name": "Beinn a' Chlachair",
      "imageUrl": "https://picsum.photos/200",
      "createdAt": "2021-06-28T10:58:52.105Z",
      "updatedAt": "2021-06-28T10:58:52.105Z",
      "Peak": {
          "latitude": 56.86953,
          "longitude": -4.50968,
          "elevation": 1087
      },
      "Statuses": [
          {
              "climbed": false,
              "wishlist": false
          }
      ]
  },
  {
      "id": 35,
      "name": "Beinn a' Chleibh",
      "imageUrl": "https://picsum.photos/200",
      "createdAt": "2021-06-28T10:58:52.105Z",
      "updatedAt": "2021-06-28T10:58:52.105Z",
      "Peak": {
          "latitude": 56.39023,
          "longitude": -4.83563,
          "elevation": 916.3
      },
      "Statuses": [
          {
              "climbed": false,
              "wishlist": false
          }
      ]
  },
  {
      "id": 36,
      "name": "Beinn a' Chochuill",
      "imageUrl": "https://picsum.photos/200",
      "createdAt": "2021-06-28T10:58:52.105Z",
      "updatedAt": "2021-06-28T10:58:52.105Z",
      "Peak": {
          "latitude": 56.44978,
          "longitude": -5.06854,
          "elevation": 980
      },
      "Statuses": [
          {
              "climbed": false,
              "wishlist": false
          }
      ]
  },
  {
      "id": 37,
      "name": "Beinn a' Chreachain",
      "imageUrl": "https://picsum.photos/200",
      "createdAt": "2021-06-28T10:58:52.105Z",
      "updatedAt": "2021-06-28T10:58:52.105Z",
      "Peak": {
          "latitude": 56.56039,
          "longitude": -4.64762,
          "elevation": 1080.6
      },
      "Statuses": [
          {
              "climbed": false,
              "wishlist": false
          }
      ]
  },
  {
      "id": 38,
      "name": "Beinn a' Chroin",
      "imageUrl": "https://picsum.photos/200",
      "createdAt": "2021-06-28T10:58:52.105Z",
      "updatedAt": "2021-06-28T10:58:52.105Z",
      "Peak": {
          "latitude": 56.33199,
          "longitude": -4.60964,
          "elevation": 941.4
      },
      "Statuses": [
          {
              "climbed": false,
              "wishlist": false
          }
      ]
  },
  {
      "id": 39,
      "name": "Beinn a' Ghlo-Braigh Coire Chruinn-bhalgain",
      "imageUrl": "https://picsum.photos/200",
      "createdAt": "2021-06-28T10:58:52.105Z",
      "updatedAt": "2021-06-28T10:58:52.105Z",
      "Peak": {
          "latitude": 56.83108,
          "longitude": -3.72951,
          "elevation": 1070
      },
      "Statuses": [
          {
              "climbed": false,
              "wishlist": false
          }
      ]
  },
  {
      "id": 40,
      "name": "Beinn a' Ghlo-Carn Liath",
      "imageUrl": "https://picsum.photos/200",
      "createdAt": "2021-06-28T10:58:52.105Z",
      "updatedAt": "2021-06-28T10:58:52.105Z",
      "Peak": {
          "latitude": 56.80777,
          "longitude": -3.74409,
          "elevation": 976
      },
      "Statuses": [
          {
              "climbed": false,
              "wishlist": false
          }
      ]
  },
  {
      "id": 41,
      "name": "Beinn a' Ghlo-Carn nan Gabhar",
      "imageUrl": "https://picsum.photos/200",
      "createdAt": "2021-06-28T10:58:52.105Z",
      "updatedAt": "2021-06-28T10:58:52.105Z",
      "Peak": {
          "latitude": 56.83984,
          "longitude": -3.68806,
          "elevation": 1121.9
      },
      "Statuses": [
          {
              "climbed": false,
              "wishlist": false
          }
      ]
  },
  {
      "id": 42,
      "name": "Beinn Achaladair",
      "imageUrl": "https://picsum.photos/200",
      "createdAt": "2021-06-28T10:58:52.105Z",
      "updatedAt": "2021-06-28T10:58:52.105Z",
      "Peak": {
          "latitude": 56.55189,
          "longitude": -4.69453,
          "elevation": 1038.6
      },
      "Statuses": [
          {
              "climbed": false,
              "wishlist": false
          }
      ]
  },
  {
      "id": 43,
      "name": "Beinn Alligin-Sgurr Mhor",
      "imageUrl": "https://picsum.photos/200",
      "createdAt": "2021-06-28T10:58:52.105Z",
      "updatedAt": "2021-06-28T10:58:52.105Z",
      "Peak": {
          "latitude": 57.59082,
          "longitude": -5.57276,
          "elevation": 986
      },
      "Statuses": [
          {
              "climbed": false,
              "wishlist": false
          }
      ]
  },
  {
      "id": 44,
      "name": "Beinn Alligin-Tom na Gruagaich",
      "imageUrl": "https://picsum.photos/200",
      "createdAt": "2021-06-28T10:58:52.105Z",
      "updatedAt": "2021-06-28T10:58:52.105Z",
      "Peak": {
          "latitude": 57.58052,
          "longitude": -5.58191,
          "elevation": 922
      },
      "Statuses": [
          {
              "climbed": false,
              "wishlist": false
          }
      ]
  },
  {
      "id": 45,
      "name": "Beinn an Dothaidh",
      "imageUrl": "https://picsum.photos/200",
      "createdAt": "2021-06-28T10:58:52.105Z",
      "updatedAt": "2021-06-28T10:58:52.105Z",
      "Peak": {
          "latitude": 56.53013,
          "longitude": -4.71396,
          "elevation": 1004
      },
      "Statuses": [
          {
              "climbed": false,
              "wishlist": false
          }
      ]
  },
  {
      "id": 46,
      "name": "Beinn Bheoil",
      "imageUrl": "https://picsum.photos/200",
      "createdAt": "2021-06-28T10:58:52.105Z",
      "updatedAt": "2021-06-28T10:58:52.105Z",
      "Peak": {
          "latitude": 56.81328,
          "longitude": -4.43066,
          "elevation": 1019
      },
      "Statuses": [
          {
              "climbed": false,
              "wishlist": false
          }
      ]
  },
  {
      "id": 47,
      "name": "Beinn Bhreac",
      "imageUrl": "https://picsum.photos/200",
      "createdAt": "2021-06-28T10:58:52.105Z",
      "updatedAt": "2021-06-28T10:58:52.105Z",
      "Peak": {
          "latitude": 57.05507,
          "longitude": -3.55347,
          "elevation": 931
      },
      "Statuses": [
          {
              "climbed": false,
              "wishlist": false
          }
      ]
  },
  {
      "id": 48,
      "name": "Beinn Bhrotain",
      "imageUrl": "https://picsum.photos/200",
      "createdAt": "2021-06-28T10:58:52.105Z",
      "updatedAt": "2021-06-28T10:58:52.105Z",
      "Peak": {
          "latitude": 57.00987,
          "longitude": -3.7238,
          "elevation": 1157
      },
      "Statuses": [
          {
              "climbed": false,
              "wishlist": false
          }
      ]
  },
  {
      "id": 49,
      "name": "Beinn Bhuidhe",
      "imageUrl": "https://picsum.photos/200",
      "createdAt": "2021-06-28T10:58:52.105Z",
      "updatedAt": "2021-06-28T10:58:52.105Z",
      "Peak": {
          "latitude": 56.32666,
          "longitude": -4.90672,
          "elevation": 948.5
      },
      "Statuses": [
          {
              "climbed": false,
              "wishlist": false
          }
      ]
  },
  {
      "id": 50,
      "name": "Beinn Chabhair",
      "imageUrl": "https://picsum.photos/200",
      "createdAt": "2021-06-28T10:58:52.105Z",
      "updatedAt": "2021-06-28T10:58:52.105Z",
      "Peak": {
          "latitude": 56.32578,
          "longitude": -4.64149,
          "elevation": 932.2
      },
      "Statuses": [
          {
              "climbed": false,
              "wishlist": false
          }
      ]
  },
  {
      "id": 51,
      "name": "Beinn Challuim (Ben Challum)",
      "imageUrl": "https://picsum.photos/200",
      "createdAt": "2021-06-28T10:58:52.105Z",
      "updatedAt": "2021-06-28T10:58:52.105Z",
      "Peak": {
          "latitude": 56.45457,
          "longitude": -4.61918,
          "elevation": 1025
      },
      "Statuses": [
          {
              "climbed": false,
              "wishlist": false
          }
      ]
  },
  {
      "id": 52,
      "name": "Beinn Dearg",
      "imageUrl": "https://picsum.photos/200",
      "createdAt": "2021-06-28T10:58:52.105Z",
      "updatedAt": "2021-06-28T10:58:52.105Z",
      "Peak": {
          "latitude": 57.78635,
          "longitude": -4.92956,
          "elevation": 1084
      },
      "Statuses": [
          {
              "climbed": false,
              "wishlist": false
          }
      ]
  },
  {
      "id": 53,
      "name": "Beinn Dearg",
      "imageUrl": "https://picsum.photos/200",
      "createdAt": "2021-06-28T10:58:52.105Z",
      "updatedAt": "2021-06-28T10:58:52.105Z",
      "Peak": {
          "latitude": 56.87735,
          "longitude": -3.88372,
          "elevation": 1008.7
      },
      "Statuses": [
          {
              "climbed": false,
              "wishlist": false
          }
      ]
  },
  {
      "id": 54,
      "name": "Beinn Dorain",
      "imageUrl": "https://picsum.photos/200",
      "createdAt": "2021-06-28T10:58:52.105Z",
      "updatedAt": "2021-06-28T10:58:52.105Z",
      "Peak": {
          "latitude": 56.50287,
          "longitude": -4.72216,
          "elevation": 1076
      },
      "Statuses": [
          {
              "climbed": false,
              "wishlist": false
          }
      ]
  },
  {
      "id": 55,
      "name": "Beinn Dubhchraig",
      "imageUrl": "https://picsum.photos/200",
      "createdAt": "2021-06-28T10:58:52.105Z",
      "updatedAt": "2021-06-28T10:58:52.105Z",
      "Peak": {
          "latitude": 56.3913,
          "longitude": -4.74319,
          "elevation": 978
      },
      "Statuses": [
          {
              "climbed": false,
              "wishlist": false
          }
      ]
  },
  {
      "id": 56,
      "name": "Beinn Eibhinn",
      "imageUrl": "https://picsum.photos/200",
      "createdAt": "2021-06-28T10:58:52.105Z",
      "updatedAt": "2021-06-28T10:58:52.105Z",
      "Peak": {
          "latitude": 56.82526,
          "longitude": -4.54208,
          "elevation": 1103.3
      },
      "Statuses": [
          {
              "climbed": false,
              "wishlist": false
          }
      ]
  },
  {
      "id": 57,
      "name": "Beinn Eighe-Ruadh-stac Mor",
      "imageUrl": "https://picsum.photos/200",
      "createdAt": "2021-06-28T10:58:52.105Z",
      "updatedAt": "2021-06-28T10:58:52.105Z",
      "Peak": {
          "latitude": 57.59374,
          "longitude": -5.42945,
          "elevation": 1010
      },
      "Statuses": [
          {
              "climbed": false,
              "wishlist": false
          }
      ]
  },
  {
      "id": 58,
      "name": "Beinn Eighe-Spidean Coire nan Clach",
      "imageUrl": "https://picsum.photos/200",
      "createdAt": "2021-06-28T10:58:52.105Z",
      "updatedAt": "2021-06-28T10:58:52.105Z",
      "Peak": {
          "latitude": 57.5821,
          "longitude": -5.40371,
          "elevation": 993
      },
      "Statuses": [
          {
              "climbed": false,
              "wishlist": false
          }
      ]
  },
  {
      "id": 59,
      "name": "Beinn Eunaich",
      "imageUrl": "https://picsum.photos/200",
      "createdAt": "2021-06-28T10:58:52.105Z",
      "updatedAt": "2021-06-28T10:58:52.105Z",
      "Peak": {
          "latitude": 56.45035,
          "longitude": -5.02664,
          "elevation": 989
      },
      "Statuses": [
          {
              "climbed": false,
              "wishlist": false
          }
      ]
  },
  {
      "id": 60,
      "name": "Beinn Fhada",
      "imageUrl": "https://picsum.photos/200",
      "createdAt": "2021-06-28T10:58:52.105Z",
      "updatedAt": "2021-06-28T10:58:52.105Z",
      "Peak": {
          "latitude": 57.221,
          "longitude": -5.2835,
          "elevation": 1031.9
      },
      "Statuses": [
          {
              "climbed": false,
              "wishlist": false
          }
      ]
  },
  {
      "id": 61,
      "name": "Beinn Fhionnlaidh",
      "imageUrl": "https://picsum.photos/200",
      "createdAt": "2021-06-28T10:58:52.105Z",
      "updatedAt": "2021-06-28T10:58:52.105Z",
      "Peak": {
          "latitude": 57.30598,
          "longitude": -5.12991,
          "elevation": 1004.8
      },
      "Statuses": [
          {
              "climbed": false,
              "wishlist": false
          }
      ]
  },
  {
      "id": 62,
      "name": "Beinn Fhionnlaidh",
      "imageUrl": "https://picsum.photos/200",
      "createdAt": "2021-06-28T10:58:52.105Z",
      "updatedAt": "2021-06-28T10:58:52.105Z",
      "Peak": {
          "latitude": 56.60098,
          "longitude": -5.10475,
          "elevation": 959
      },
      "Statuses": [
          {
              "climbed": false,
              "wishlist": false
          }
      ]
  },
  {
      "id": 63,
      "name": "Beinn Ghlas",
      "imageUrl": "https://picsum.photos/200",
      "createdAt": "2021-06-28T10:58:52.105Z",
      "updatedAt": "2021-06-28T10:58:52.105Z",
      "Peak": {
          "latitude": 56.536,
          "longitude": -4.23699,
          "elevation": 1103
      },
      "Statuses": [
          {
              "climbed": false,
              "wishlist": false
          }
      ]
  },
  {
      "id": 64,
      "name": "Beinn Ime",
      "imageUrl": "https://picsum.photos/200",
      "createdAt": "2021-06-28T10:58:52.105Z",
      "updatedAt": "2021-06-28T10:58:52.105Z",
      "Peak": {
          "latitude": 56.23679,
          "longitude": -4.81713,
          "elevation": 1012.2
      },
      "Statuses": [
          {
              "climbed": false,
              "wishlist": false
          }
      ]
  },
  {
      "id": 65,
      "name": "Beinn Iutharn Mhor",
      "imageUrl": "https://picsum.photos/200",
      "createdAt": "2021-06-28T10:58:52.105Z",
      "updatedAt": "2021-06-28T10:58:52.105Z",
      "Peak": {
          "latitude": 56.89499,
          "longitude": -3.56823,
          "elevation": 1045
      },
      "Statuses": [
          {
              "climbed": false,
              "wishlist": false
          }
      ]
  },
  {
      "id": 66,
      "name": "Beinn Liath Mhor",
      "imageUrl": "https://picsum.photos/200",
      "createdAt": "2021-06-28T10:58:52.105Z",
      "updatedAt": "2021-06-28T10:58:52.105Z",
      "Peak": {
          "latitude": 57.51208,
          "longitude": -5.40062,
          "elevation": 926
      },
      "Statuses": [
          {
              "climbed": false,
              "wishlist": false
          }
      ]
  },
  {
      "id": 67,
      "name": "Beinn Liath Mhor Fannaich",
      "imageUrl": "https://picsum.photos/200",
      "createdAt": "2021-06-28T10:58:52.105Z",
      "updatedAt": "2021-06-28T10:58:52.105Z",
      "Peak": {
          "latitude": 57.7061,
          "longitude": -4.98978,
          "elevation": 954
      },
      "Statuses": [
          {
              "climbed": false,
              "wishlist": false
          }
      ]
  },
  {
      "id": 68,
      "name": "Beinn Mhanach",
      "imageUrl": "https://picsum.photos/200",
      "createdAt": "2021-06-28T10:58:52.105Z",
      "updatedAt": "2021-06-28T10:58:52.105Z",
      "Peak": {
          "latitude": 56.53404,
          "longitude": -4.64604,
          "elevation": 953
      },
      "Statuses": [
          {
              "climbed": false,
              "wishlist": false
          }
      ]
  },
  {
      "id": 69,
      "name": "Beinn Mheadhoin",
      "imageUrl": "https://picsum.photos/200",
      "createdAt": "2021-06-28T10:58:52.105Z",
      "updatedAt": "2021-06-28T10:58:52.105Z",
      "Peak": {
          "latitude": 57.09585,
          "longitude": -3.61146,
          "elevation": 1182.9
      },
      "Statuses": [
          {
              "climbed": false,
              "wishlist": false
          }
      ]
  },
  {
      "id": 70,
      "name": "Beinn na Lap",
      "imageUrl": "https://picsum.photos/200",
      "createdAt": "2021-06-28T10:58:52.105Z",
      "updatedAt": "2021-06-28T10:58:52.105Z",
      "Peak": {
          "latitude": 56.78939,
          "longitude": -4.65999,
          "elevation": 935
      },
      "Statuses": [
          {
              "climbed": false,
              "wishlist": false
          }
      ]
  },
  {
      "id": 71,
      "name": "Beinn nan Aighenan",
      "imageUrl": "https://picsum.photos/200",
      "createdAt": "2021-06-28T10:58:52.105Z",
      "updatedAt": "2021-06-28T10:58:52.105Z",
      "Peak": {
          "latitude": 56.52022,
          "longitude": -5.01125,
          "elevation": 960
      },
      "Statuses": [
          {
              "climbed": false,
              "wishlist": false
          }
      ]
  },
  {
      "id": 72,
      "name": "Beinn Narnain",
      "imageUrl": "https://picsum.photos/200",
      "createdAt": "2021-06-28T10:58:52.105Z",
      "updatedAt": "2021-06-28T10:58:52.105Z",
      "Peak": {
          "latitude": 56.22096,
          "longitude": -4.789,
          "elevation": 927
      },
      "Statuses": [
          {
              "climbed": false,
              "wishlist": false
          }
      ]
  },
  {
      "id": 73,
      "name": "Beinn Sgritheall",
      "imageUrl": "https://picsum.photos/200",
      "createdAt": "2021-06-28T10:58:52.105Z",
      "updatedAt": "2021-06-28T10:58:52.105Z",
      "Peak": {
          "latitude": 57.15382,
          "longitude": -5.57971,
          "elevation": 974
      },
      "Statuses": [
          {
              "climbed": false,
              "wishlist": false
          }
      ]
  },
  {
      "id": 74,
      "name": "Beinn Sgulaird",
      "imageUrl": "https://picsum.photos/200",
      "createdAt": "2021-06-28T10:58:52.105Z",
      "updatedAt": "2021-06-28T10:58:52.105Z",
      "Peak": {
          "latitude": 56.56623,
          "longitude": -5.17037,
          "elevation": 937
      },
      "Statuses": [
          {
              "climbed": false,
              "wishlist": false
          }
      ]
  },
  {
      "id": 75,
      "name": "Beinn Sheasgarnaich (Beinn Heasgarnich)",
      "imageUrl": "https://picsum.photos/200",
      "createdAt": "2021-06-28T10:58:52.105Z",
      "updatedAt": "2021-06-28T10:58:52.105Z",
      "Peak": {
          "latitude": 56.51027,
          "longitude": -4.57922,
          "elevation": 1077.4
      },
      "Statuses": [
          {
              "climbed": false,
              "wishlist": false
          }
      ]
  },
  {
      "id": 76,
      "name": "Beinn Tarsuinn",
      "imageUrl": "https://picsum.photos/200",
      "createdAt": "2021-06-28T10:58:52.105Z",
      "updatedAt": "2021-06-28T10:58:52.105Z",
      "Peak": {
          "latitude": 57.70205,
          "longitude": -5.29163,
          "elevation": 933.8
      },
      "Statuses": [
          {
              "climbed": false,
              "wishlist": false
          }
      ]
  },
  {
      "id": 77,
      "name": "Beinn Teallach",
      "imageUrl": "https://picsum.photos/200",
      "createdAt": "2021-06-28T10:58:52.105Z",
      "updatedAt": "2021-06-28T10:58:52.105Z",
      "Peak": {
          "latitude": 56.93593,
          "longitude": -4.69475,
          "elevation": 914.6
      },
      "Statuses": [
          {
              "climbed": false,
              "wishlist": false
          }
      ]
  },
  {
      "id": 78,
      "name": "Beinn Tulaichean",
      "imageUrl": "https://picsum.photos/200",
      "createdAt": "2021-06-28T10:58:52.105Z",
      "updatedAt": "2021-06-28T10:58:52.105Z",
      "Peak": {
          "latitude": 56.34222,
          "longitude": -4.56333,
          "elevation": 945.8
      },
      "Statuses": [
          {
              "climbed": false,
              "wishlist": false
          }
      ]
  },
  {
      "id": 79,
      "name": "Beinn Udlamain",
      "imageUrl": "https://picsum.photos/200",
      "createdAt": "2021-06-28T10:58:52.105Z",
      "updatedAt": "2021-06-28T10:58:52.105Z",
      "Peak": {
          "latitude": 56.83544,
          "longitude": -4.32998,
          "elevation": 1010.2
      },
      "Statuses": [
          {
              "climbed": false,
              "wishlist": false
          }
      ]
  },
  {
      "id": 80,
      "name": "Ben Alder",
      "imageUrl": "https://picsum.photos/200",
      "createdAt": "2021-06-28T10:58:52.105Z",
      "updatedAt": "2021-06-28T10:58:52.105Z",
      "Peak": {
          "latitude": 56.8138,
          "longitude": -4.46509,
          "elevation": 1148
      },
      "Statuses": [
          {
              "climbed": false,
              "wishlist": false
          }
      ]
  },
  {
      "id": 81,
      "name": "Ben Avon-Leabaidh an Daimh Bhuidhe",
      "imageUrl": "https://picsum.photos/200",
      "createdAt": "2021-06-28T10:58:52.105Z",
      "updatedAt": "2021-06-28T10:58:52.105Z",
      "Peak": {
          "latitude": 57.09935,
          "longitude": -3.43444,
          "elevation": 1172
      },
      "Statuses": [
          {
              "climbed": false,
              "wishlist": false
          }
      ]
  },
  {
      "id": 82,
      "name": "Ben Chonzie",
      "imageUrl": "https://picsum.photos/200",
      "createdAt": "2021-06-28T10:58:52.105Z",
      "updatedAt": "2021-06-28T10:58:52.105Z",
      "Peak": {
          "latitude": 56.45385,
          "longitude": -3.99206,
          "elevation": 931
      },
      "Statuses": [
          {
              "climbed": false,
              "wishlist": false
          }
      ]
  },
  {
      "id": 83,
      "name": "Ben Cruachan",
      "imageUrl": "https://picsum.photos/200",
      "createdAt": "2021-06-28T10:58:52.105Z",
      "updatedAt": "2021-06-28T10:58:52.105Z",
      "Peak": {
          "latitude": 56.42684,
          "longitude": -5.13183,
          "elevation": 1127
      },
      "Statuses": [
          {
              "climbed": false,
              "wishlist": false
          }
      ]
  },
  {
      "id": 84,
      "name": "Ben Hope",
      "imageUrl": "https://picsum.photos/200",
      "createdAt": "2021-06-28T10:58:52.105Z",
      "updatedAt": "2021-06-28T10:58:52.105Z",
      "Peak": {
          "latitude": 58.41311,
          "longitude": -4.60786,
          "elevation": 927
      },
      "Statuses": [
          {
              "climbed": false,
              "wishlist": false
          }
      ]
  },
  {
      "id": 85,
      "name": "Ben Klibreck-Meall nan Con",
      "imageUrl": "https://picsum.photos/200",
      "createdAt": "2021-06-28T10:58:52.105Z",
      "updatedAt": "2021-06-28T10:58:52.105Z",
      "Peak": {
          "latitude": 58.2352,
          "longitude": -4.41113,
          "elevation": 962.1
      },
      "Statuses": [
          {
              "climbed": false,
              "wishlist": false
          }
      ]
  },
  {
      "id": 86,
      "name": "Ben Lawers",
      "imageUrl": "https://picsum.photos/200",
      "createdAt": "2021-06-28T10:58:52.105Z",
      "updatedAt": "2021-06-28T10:58:52.105Z",
      "Peak": {
          "latitude": 56.54492,
          "longitude": -4.22086,
          "elevation": 1214
      },
      "Statuses": [
          {
              "climbed": false,
              "wishlist": false
          }
      ]
  },
  {
      "id": 87,
      "name": "Ben Lomond",
      "imageUrl": "https://picsum.photos/200",
      "createdAt": "2021-06-28T10:58:52.105Z",
      "updatedAt": "2021-06-28T10:58:52.105Z",
      "Peak": {
          "latitude": 56.19029,
          "longitude": -4.63301,
          "elevation": 974
      },
      "Statuses": [
          {
              "climbed": false,
              "wishlist": false
          }
      ]
  },
  {
      "id": 88,
      "name": "Ben Lui (Beinn Laoigh)",
      "imageUrl": "https://picsum.photos/200",
      "createdAt": "2021-06-28T10:58:52.105Z",
      "updatedAt": "2021-06-28T10:58:52.105Z",
      "Peak": {
          "latitude": 56.397,
          "longitude": -4.81051,
          "elevation": 1131.4
      },
      "Statuses": [
          {
              "climbed": false,
              "wishlist": false
          }
      ]
  },
  {
      "id": 89,
      "name": "Ben Macdui (Beinn Macduibh)",
      "imageUrl": "https://picsum.photos/200",
      "createdAt": "2021-06-28T10:58:52.105Z",
      "updatedAt": "2021-06-28T10:58:52.105Z",
      "Peak": {
          "latitude": 57.07037,
          "longitude": -3.6691,
          "elevation": 1309
      },
      "Statuses": [
          {
              "climbed": false,
              "wishlist": false
          }
      ]
  },
  {
      "id": 90,
      "name": "Ben More",
      "imageUrl": "https://picsum.photos/200",
      "createdAt": "2021-06-28T10:58:52.105Z",
      "updatedAt": "2021-06-28T10:58:52.105Z",
      "Peak": {
          "latitude": 56.38595,
          "longitude": -4.54009,
          "elevation": 1174
      },
      "Statuses": [
          {
              "climbed": false,
              "wishlist": false
          }
      ]
  },
  {
      "id": 91,
      "name": "Ben More",
      "imageUrl": "https://picsum.photos/200",
      "createdAt": "2021-06-28T10:58:52.105Z",
      "updatedAt": "2021-06-28T10:58:52.105Z",
      "Peak": {
          "latitude": 56.42483,
          "longitude": -6.01402,
          "elevation": 966
      },
      "Statuses": [
          {
              "climbed": false,
              "wishlist": false
          }
      ]
  },
  {
      "id": 92,
      "name": "Ben More Assynt",
      "imageUrl": "https://picsum.photos/200",
      "createdAt": "2021-06-28T10:58:52.105Z",
      "updatedAt": "2021-06-28T10:58:52.105Z",
      "Peak": {
          "latitude": 58.13816,
          "longitude": -4.85821,
          "elevation": 998
      },
      "Statuses": [
          {
              "climbed": false,
              "wishlist": false
          }
      ]
  },
  {
      "id": 93,
      "name": "Ben Nevis (Beinn Nibheis)",
      "imageUrl": "https://picsum.photos/200",
      "createdAt": "2021-06-28T10:58:52.105Z",
      "updatedAt": "2021-06-28T10:58:52.105Z",
      "Peak": {
          "latitude": 56.79689,
          "longitude": -5.00368,
          "elevation": 1344.5
      },
      "Statuses": [
          {
              "climbed": false,
              "wishlist": false
          }
      ]
  },
  {
      "id": 94,
      "name": "Ben Oss",
      "imageUrl": "https://picsum.photos/200",
      "createdAt": "2021-06-28T10:58:52.105Z",
      "updatedAt": "2021-06-28T10:58:52.105Z",
      "Peak": {
          "latitude": 56.38927,
          "longitude": -4.77549,
          "elevation": 1029
      },
      "Statuses": [
          {
              "climbed": false,
              "wishlist": false
          }
      ]
  },
  {
      "id": 95,
      "name": "Ben Starav",
      "imageUrl": "https://picsum.photos/200",
      "createdAt": "2021-06-28T10:58:52.105Z",
      "updatedAt": "2021-06-28T10:58:52.105Z",
      "Peak": {
          "latitude": 56.53892,
          "longitude": -5.04975,
          "elevation": 1079.5
      },
      "Statuses": [
          {
              "climbed": false,
              "wishlist": false
          }
      ]
  },
  {
      "id": 96,
      "name": "Ben Vane",
      "imageUrl": "https://picsum.photos/200",
      "createdAt": "2021-06-28T10:58:52.105Z",
      "updatedAt": "2021-06-28T10:58:52.105Z",
      "Peak": {
          "latitude": 56.24979,
          "longitude": -4.78166,
          "elevation": 915.8
      },
      "Statuses": [
          {
              "climbed": false,
              "wishlist": false
          }
      ]
  },
  {
      "id": 97,
      "name": "Ben Vorlich",
      "imageUrl": "https://picsum.photos/200",
      "createdAt": "2021-06-28T10:58:52.105Z",
      "updatedAt": "2021-06-28T10:58:52.105Z",
      "Peak": {
          "latitude": 56.34268,
          "longitude": -4.21945,
          "elevation": 985.3
      },
      "Statuses": [
          {
              "climbed": false,
              "wishlist": false
          }
      ]
  },
  {
      "id": 98,
      "name": "Ben Vorlich",
      "imageUrl": "https://picsum.photos/200",
      "createdAt": "2021-06-28T10:58:52.105Z",
      "updatedAt": "2021-06-28T10:58:52.105Z",
      "Peak": {
          "latitude": 56.27402,
          "longitude": -4.75505,
          "elevation": 943
      },
      "Statuses": [
          {
              "climbed": false,
              "wishlist": false
          }
      ]
  },
  {
      "id": 99,
      "name": "Ben Wyvis-Glas Leathad Mor",
      "imageUrl": "https://picsum.photos/200",
      "createdAt": "2021-06-28T10:58:52.105Z",
      "updatedAt": "2021-06-28T10:58:52.105Z",
      "Peak": {
          "latitude": 57.67891,
          "longitude": -4.57925,
          "elevation": 1046
      },
      "Statuses": [
          {
              "climbed": false,
              "wishlist": false
          }
      ]
  },
  {
      "id": 100,
      "name": "Bidean nam Bian",
      "imageUrl": "https://picsum.photos/200",
      "createdAt": "2021-06-28T10:58:52.105Z",
      "updatedAt": "2021-06-28T10:58:52.105Z",
      "Peak": {
          "latitude": 56.64277,
          "longitude": -5.02934,
          "elevation": 1149.4
      },
      "Statuses": [
          {
              "climbed": false,
              "wishlist": false
          }
      ]
  },
  {
      "id": 101,
      "name": "Bidein a' Choire Sheasgaich",
      "imageUrl": "https://picsum.photos/200",
      "createdAt": "2021-06-28T10:58:52.105Z",
      "updatedAt": "2021-06-28T10:58:52.105Z",
      "Peak": {
          "latitude": 57.41972,
          "longitude": -5.25047,
          "elevation": 945
      },
      "Statuses": [
          {
              "climbed": false,
              "wishlist": false
          }
      ]
  },
  {
      "id": 102,
      "name": "Binnein Beag",
      "imageUrl": "https://picsum.photos/200",
      "createdAt": "2021-06-28T10:58:52.105Z",
      "updatedAt": "2021-06-28T10:58:52.105Z",
      "Peak": {
          "latitude": 56.76696,
          "longitude": -4.91116,
          "elevation": 943
      },
      "Statuses": [
          {
              "climbed": false,
              "wishlist": false
          }
      ]
  },
  {
      "id": 103,
      "name": "Binnein Mor",
      "imageUrl": "https://picsum.photos/200",
      "createdAt": "2021-06-28T10:58:52.105Z",
      "updatedAt": "2021-06-28T10:58:52.105Z",
      "Peak": {
          "latitude": 56.75438,
          "longitude": -4.9258,
          "elevation": 1130
      },
      "Statuses": [
          {
              "climbed": false,
              "wishlist": false
          }
      ]
  },
  {
      "id": 104,
      "name": "Blabheinn (Bla Bheinn)",
      "imageUrl": "https://picsum.photos/200",
      "createdAt": "2021-06-28T10:58:52.105Z",
      "updatedAt": "2021-06-28T10:58:52.105Z",
      "Peak": {
          "latitude": 57.21957,
          "longitude": -6.09321,
          "elevation": 929
      },
      "Statuses": [
          {
              "climbed": false,
              "wishlist": false
          }
      ]
  },
  {
      "id": 105,
      "name": "Braeriach",
      "imageUrl": "https://picsum.photos/200",
      "createdAt": "2021-06-28T10:58:52.105Z",
      "updatedAt": "2021-06-28T10:58:52.105Z",
      "Peak": {
          "latitude": 57.07831,
          "longitude": -3.72837,
          "elevation": 1296
      },
      "Statuses": [
          {
              "climbed": false,
              "wishlist": false
          }
      ]
  },
  {
      "id": 106,
      "name": "Broad Cairn",
      "imageUrl": "https://picsum.photos/200",
      "createdAt": "2021-06-28T10:58:52.105Z",
      "updatedAt": "2021-06-28T10:58:52.105Z",
      "Peak": {
          "latitude": 56.91915,
          "longitude": -3.24908,
          "elevation": 998
      },
      "Statuses": [
          {
              "climbed": false,
              "wishlist": false
          }
      ]
  },
  {
      "id": 107,
      "name": "Bruach na Frithe",
      "imageUrl": "https://picsum.photos/200",
      "createdAt": "2021-06-28T10:58:52.105Z",
      "updatedAt": "2021-06-28T10:58:52.105Z",
      "Peak": {
          "latitude": 57.24674,
          "longitude": -6.21078,
          "elevation": 958.8
      },
      "Statuses": [
          {
              "climbed": false,
              "wishlist": false
          }
      ]
  },
  {
      "id": 108,
      "name": "Buachaille Etive Beag-Stob Coire Raineach",
      "imageUrl": "https://picsum.photos/200",
      "createdAt": "2021-06-28T10:58:52.105Z",
      "updatedAt": "2021-06-28T10:58:52.105Z",
      "Peak": {
          "latitude": 56.6499,
          "longitude": -4.9516,
          "elevation": 924.5
      },
      "Statuses": [
          {
              "climbed": false,
              "wishlist": false
          }
      ]
  },
  {
      "id": 109,
      "name": "Buachaille Etive Beag-Stob Dubh",
      "imageUrl": "https://picsum.photos/200",
      "createdAt": "2021-06-28T10:58:52.105Z",
      "updatedAt": "2021-06-28T10:58:52.105Z",
      "Peak": {
          "latitude": 56.63816,
          "longitude": -4.97075,
          "elevation": 958
      },
      "Statuses": [
          {
              "climbed": false,
              "wishlist": false
          }
      ]
  },
  {
      "id": 110,
      "name": "Buachaille Etive Mor-Stob Dearg",
      "imageUrl": "https://picsum.photos/200",
      "createdAt": "2021-06-28T10:58:52.105Z",
      "updatedAt": "2021-06-28T10:58:52.105Z",
      "Peak": {
          "latitude": 56.64623,
          "longitude": -4.90033,
          "elevation": 1021.4
      },
      "Statuses": [
          {
              "climbed": false,
              "wishlist": false
          }
      ]
  },
  {
      "id": 111,
      "name": "Buachaille Etive Mor-Stob na Broige",
      "imageUrl": "https://picsum.photos/200",
      "createdAt": "2021-06-28T10:58:52.105Z",
      "updatedAt": "2021-06-28T10:58:52.105Z",
      "Peak": {
          "latitude": 56.62988,
          "longitude": -4.95115,
          "elevation": 953.4
      },
      "Statuses": [
          {
              "climbed": false,
              "wishlist": false
          }
      ]
  },
  {
      "id": 112,
      "name": "Bynack More",
      "imageUrl": "https://picsum.photos/200",
      "createdAt": "2021-06-28T10:58:52.105Z",
      "updatedAt": "2021-06-28T10:58:52.105Z",
      "Peak": {
          "latitude": 57.13822,
          "longitude": -3.58472,
          "elevation": 1090
      },
      "Statuses": [
          {
              "climbed": false,
              "wishlist": false
          }
      ]
  },
  {
      "id": 113,
      "name": "Cairn Bannoch",
      "imageUrl": "https://picsum.photos/200",
      "createdAt": "2021-06-28T10:58:52.105Z",
      "updatedAt": "2021-06-28T10:58:52.105Z",
      "Peak": {
          "latitude": 56.92773,
          "longitude": -3.2784,
          "elevation": 1012
      },
      "Statuses": [
          {
              "climbed": false,
              "wishlist": false
          }
      ]
  },
  {
      "id": 114,
      "name": "Cairn Gorm",
      "imageUrl": "https://picsum.photos/200",
      "createdAt": "2021-06-28T10:58:52.105Z",
      "updatedAt": "2021-06-28T10:58:52.105Z",
      "Peak": {
          "latitude": 57.11671,
          "longitude": -3.64448,
          "elevation": 1244.8
      },
      "Statuses": [
          {
              "climbed": false,
              "wishlist": false
          }
      ]
  },
  {
      "id": 115,
      "name": "Cairn of Claise",
      "imageUrl": "https://picsum.photos/200",
      "createdAt": "2021-06-28T10:58:52.105Z",
      "updatedAt": "2021-06-28T10:58:52.105Z",
      "Peak": {
          "latitude": 56.89417,
          "longitude": -3.33864,
          "elevation": 1064
      },
      "Statuses": [
          {
              "climbed": false,
              "wishlist": false
          }
      ]
  },
  {
      "id": 116,
      "name": "Cairn Toul",
      "imageUrl": "https://picsum.photos/200",
      "createdAt": "2021-06-28T10:58:52.105Z",
      "updatedAt": "2021-06-28T10:58:52.105Z",
      "Peak": {
          "latitude": 57.05441,
          "longitude": -3.71077,
          "elevation": 1291
      },
      "Statuses": [
          {
              "climbed": false,
              "wishlist": false
          }
      ]
  },
  {
      "id": 117,
      "name": "Carn a' Chlamain",
      "imageUrl": "https://picsum.photos/200",
      "createdAt": "2021-06-28T10:58:52.105Z",
      "updatedAt": "2021-06-28T10:58:52.105Z",
      "Peak": {
          "latitude": 56.86097,
          "longitude": -3.77963,
          "elevation": 963.5
      },
      "Statuses": [
          {
              "climbed": false,
              "wishlist": false
          }
      ]
  },
  {
      "id": 118,
      "name": "Carn a' Choire Bhoidheach",
      "imageUrl": "https://picsum.photos/200",
      "createdAt": "2021-06-28T10:58:52.105Z",
      "updatedAt": "2021-06-28T10:58:52.105Z",
      "Peak": {
          "latitude": 56.94577,
          "longitude": -3.27271,
          "elevation": 1109.9
      },
      "Statuses": [
          {
              "climbed": false,
              "wishlist": false
          }
      ]
  },
  {
      "id": 119,
      "name": "Carn a' Gheoidh",
      "imageUrl": "https://picsum.photos/200",
      "createdAt": "2021-06-28T10:58:52.105Z",
      "updatedAt": "2021-06-28T10:58:52.105Z",
      "Peak": {
          "latitude": 56.87307,
          "longitude": -3.46662,
          "elevation": 975
      },
      "Statuses": [
          {
              "climbed": false,
              "wishlist": false
          }
      ]
  },
  {
      "id": 120,
      "name": "Carn a' Mhaim",
      "imageUrl": "https://picsum.photos/200",
      "createdAt": "2021-06-28T10:58:52.105Z",
      "updatedAt": "2021-06-28T10:58:52.105Z",
      "Peak": {
          "latitude": 57.03687,
          "longitude": -3.65838,
          "elevation": 1037
      },
      "Statuses": [
          {
              "climbed": false,
              "wishlist": false
          }
      ]
  },
  {
      "id": 121,
      "name": "Carn an Fhidhleir (Carn Ealar)",
      "imageUrl": "https://picsum.photos/200",
      "createdAt": "2021-06-28T10:58:52.105Z",
      "updatedAt": "2021-06-28T10:58:52.105Z",
      "Peak": {
          "latitude": 56.93602,
          "longitude": -3.80153,
          "elevation": 994
      },
      "Statuses": [
          {
              "climbed": false,
              "wishlist": false
          }
      ]
  },
  {
      "id": 122,
      "name": "Carn an Righ",
      "imageUrl": "https://picsum.photos/200",
      "createdAt": "2021-06-28T10:58:52.105Z",
      "updatedAt": "2021-06-28T10:58:52.105Z",
      "Peak": {
          "latitude": 56.87658,
          "longitude": -3.59527,
          "elevation": 1029
      },
      "Statuses": [
          {
              "climbed": false,
              "wishlist": false
          }
      ]
  },
  {
      "id": 123,
      "name": "Carn an t-Sagairt Mor",
      "imageUrl": "https://picsum.photos/200",
      "createdAt": "2021-06-28T10:58:52.105Z",
      "updatedAt": "2021-06-28T10:58:52.105Z",
      "Peak": {
          "latitude": 56.94297,
          "longitude": -3.30323,
          "elevation": 1047
      },
      "Statuses": [
          {
              "climbed": false,
              "wishlist": false
          }
      ]
  },
  {
      "id": 124,
      "name": "Carn an Tuirc",
      "imageUrl": "https://picsum.photos/200",
      "createdAt": "2021-06-28T10:58:52.105Z",
      "updatedAt": "2021-06-28T10:58:52.105Z",
      "Peak": {
          "latitude": 56.90827,
          "longitude": -3.35713,
          "elevation": 1019
      },
      "Statuses": [
          {
              "climbed": false,
              "wishlist": false
          }
      ]
  },
  {
      "id": 125,
      "name": "Carn Aosda",
      "imageUrl": "https://picsum.photos/200",
      "createdAt": "2021-06-28T10:58:52.105Z",
      "updatedAt": "2021-06-28T10:58:52.105Z",
      "Peak": {
          "latitude": 56.8957,
          "longitude": -3.42327,
          "elevation": 915.3
      },
      "Statuses": [
          {
              "climbed": false,
              "wishlist": false
          }
      ]
  },
  {
      "id": 126,
      "name": "Carn Bhac",
      "imageUrl": "https://picsum.photos/200",
      "createdAt": "2021-06-28T10:58:52.105Z",
      "updatedAt": "2021-06-28T10:58:52.105Z",
      "Peak": {
          "latitude": 56.93054,
          "longitude": -3.56088,
          "elevation": 945.1
      },
      "Statuses": [
          {
              "climbed": false,
              "wishlist": false
          }
      ]
  },
  {
      "id": 127,
      "name": "Carn Dearg",
      "imageUrl": "https://picsum.photos/200",
      "createdAt": "2021-06-28T10:58:52.105Z",
      "updatedAt": "2021-06-28T10:58:52.105Z",
      "Peak": {
          "latitude": 56.85524,
          "longitude": -4.45469,
          "elevation": 1034
      },
      "Statuses": [
          {
              "climbed": false,
              "wishlist": false
          }
      ]
  },
  {
      "id": 128,
      "name": "Carn Dearg",
      "imageUrl": "https://picsum.photos/200",
      "createdAt": "2021-06-28T10:58:52.105Z",
      "updatedAt": "2021-06-28T10:58:52.105Z",
      "Peak": {
          "latitude": 57.09226,
          "longitude": -4.25325,
          "elevation": 945.7
      },
      "Statuses": [
          {
              "climbed": false,
              "wishlist": false
          }
      ]
  },
  {
      "id": 129,
      "name": "Carn Dearg",
      "imageUrl": "https://picsum.photos/200",
      "createdAt": "2021-06-28T10:58:52.105Z",
      "updatedAt": "2021-06-28T10:58:52.105Z",
      "Peak": {
          "latitude": 56.75993,
          "longitude": -4.58989,
          "elevation": 941
      },
      "Statuses": [
          {
              "climbed": false,
              "wishlist": false
          }
      ]
  },
  {
      "id": 130,
      "name": "Carn Eighe",
      "imageUrl": "https://picsum.photos/200",
      "createdAt": "2021-06-28T10:58:52.105Z",
      "updatedAt": "2021-06-28T10:58:52.105Z",
      "Peak": {
          "latitude": 57.2877,
          "longitude": -5.11516,
          "elevation": 1182.8
      },
      "Statuses": [
          {
              "climbed": false,
              "wishlist": false
          }
      ]
  },
  {
      "id": 131,
      "name": "Carn Ghluasaid",
      "imageUrl": "https://picsum.photos/200",
      "createdAt": "2021-06-28T10:58:52.105Z",
      "updatedAt": "2021-06-28T10:58:52.105Z",
      "Peak": {
          "latitude": 57.16596,
          "longitude": -5.06816,
          "elevation": 957
      },
      "Statuses": [
          {
              "climbed": false,
              "wishlist": false
          }
      ]
  },
  {
      "id": 132,
      "name": "Carn Gorm",
      "imageUrl": "https://picsum.photos/200",
      "createdAt": "2021-06-28T10:58:52.105Z",
      "updatedAt": "2021-06-28T10:58:52.105Z",
      "Peak": {
          "latitude": 56.62254,
          "longitude": -4.22602,
          "elevation": 1029
      },
      "Statuses": [
          {
              "climbed": false,
              "wishlist": false
          }
      ]
  },
  {
      "id": 133,
      "name": "Carn Liath",
      "imageUrl": "https://picsum.photos/200",
      "createdAt": "2021-06-28T10:58:52.105Z",
      "updatedAt": "2021-06-28T10:58:52.105Z",
      "Peak": {
          "latitude": 56.97878,
          "longitude": -4.51529,
          "elevation": 1006
      },
      "Statuses": [
          {
              "climbed": false,
              "wishlist": false
          }
      ]
  },
  {
      "id": 134,
      "name": "Carn Mairg",
      "imageUrl": "https://picsum.photos/200",
      "createdAt": "2021-06-28T10:58:52.105Z",
      "updatedAt": "2021-06-28T10:58:52.105Z",
      "Peak": {
          "latitude": 56.63464,
          "longitude": -4.14561,
          "elevation": 1042
      },
      "Statuses": [
          {
              "climbed": false,
              "wishlist": false
          }
      ]
  },
  {
      "id": 135,
      "name": "Carn Mor Dearg",
      "imageUrl": "https://picsum.photos/200",
      "createdAt": "2021-06-28T10:58:52.105Z",
      "updatedAt": "2021-06-28T10:58:52.105Z",
      "Peak": {
          "latitude": 56.80525,
          "longitude": -4.98662,
          "elevation": 1220
      },
      "Statuses": [
          {
              "climbed": false,
              "wishlist": false
          }
      ]
  },
  {
      "id": 136,
      "name": "Carn na Caim",
      "imageUrl": "https://picsum.photos/200",
      "createdAt": "2021-06-28T10:58:52.105Z",
      "updatedAt": "2021-06-28T10:58:52.105Z",
      "Peak": {
          "latitude": 56.91174,
          "longitude": -4.17448,
          "elevation": 940.8
      },
      "Statuses": [
          {
              "climbed": false,
              "wishlist": false
          }
      ]
  },
  {
      "id": 137,
      "name": "Carn nan Gobhar",
      "imageUrl": "https://picsum.photos/200",
      "createdAt": "2021-06-28T10:58:52.105Z",
      "updatedAt": "2021-06-28T10:58:52.105Z",
      "Peak": {
          "latitude": 57.3633,
          "longitude": -5.02454,
          "elevation": 993
      },
      "Statuses": [
          {
              "climbed": false,
              "wishlist": false
          }
      ]
  },
  {
      "id": 138,
      "name": "Carn nan Gobhar",
      "imageUrl": "https://picsum.photos/200",
      "createdAt": "2021-06-28T10:58:52.105Z",
      "updatedAt": "2021-06-28T10:58:52.105Z",
      "Peak": {
          "latitude": 57.45233,
          "longitude": -4.87994,
          "elevation": 992
      },
      "Statuses": [
          {
              "climbed": false,
              "wishlist": false
          }
      ]
  },
  {
      "id": 139,
      "name": "Carn Sgulain",
      "imageUrl": "https://picsum.photos/200",
      "createdAt": "2021-06-28T10:58:52.105Z",
      "updatedAt": "2021-06-28T10:58:52.105Z",
      "Peak": {
          "latitude": 57.12437,
          "longitude": -4.17699,
          "elevation": 920.3
      },
      "Statuses": [
          {
              "climbed": false,
              "wishlist": false
          }
      ]
  },
  {
      "id": 140,
      "name": "Chno Dearg",
      "imageUrl": "https://picsum.photos/200",
      "createdAt": "2021-06-28T10:58:52.105Z",
      "updatedAt": "2021-06-28T10:58:52.105Z",
      "Peak": {
          "latitude": 56.83009,
          "longitude": -4.66083,
          "elevation": 1046
      },
      "Statuses": [
          {
              "climbed": false,
              "wishlist": false
          }
      ]
  },
  {
      "id": 141,
      "name": "Ciste Dhubh",
      "imageUrl": "https://picsum.photos/200",
      "createdAt": "2021-06-28T10:58:52.105Z",
      "updatedAt": "2021-06-28T10:58:52.105Z",
      "Peak": {
          "latitude": 57.19923,
          "longitude": -5.20903,
          "elevation": 981.1
      },
      "Statuses": [
          {
              "climbed": false,
              "wishlist": false
          }
      ]
  },
  {
      "id": 142,
      "name": "Cona' Mheall",
      "imageUrl": "https://picsum.photos/200",
      "createdAt": "2021-06-28T10:58:52.105Z",
      "updatedAt": "2021-06-28T10:58:52.105Z",
      "Peak": {
          "latitude": 57.79108,
          "longitude": -4.90342,
          "elevation": 978
      },
      "Statuses": [
          {
              "climbed": false,
              "wishlist": false
          }
      ]
  },
  {
      "id": 143,
      "name": "Conival",
      "imageUrl": "https://picsum.photos/200",
      "createdAt": "2021-06-28T10:58:52.105Z",
      "updatedAt": "2021-06-28T10:58:52.105Z",
      "Peak": {
          "latitude": 58.13569,
          "longitude": -4.8835,
          "elevation": 987
      },
      "Statuses": [
          {
              "climbed": false,
              "wishlist": false
          }
      ]
  },
  {
      "id": 144,
      "name": "Creag a' Mhaim",
      "imageUrl": "https://picsum.photos/200",
      "createdAt": "2021-06-28T10:58:52.105Z",
      "updatedAt": "2021-06-28T10:58:52.105Z",
      "Peak": {
          "latitude": 57.12097,
          "longitude": -5.16005,
          "elevation": 946.2
      },
      "Statuses": [
          {
              "climbed": false,
              "wishlist": false
          }
      ]
  },
  {
      "id": 145,
      "name": "Creag Leacach",
      "imageUrl": "https://picsum.photos/200",
      "createdAt": "2021-06-28T10:58:52.105Z",
      "updatedAt": "2021-06-28T10:58:52.105Z",
      "Peak": {
          "latitude": 56.85463,
          "longitude": -3.38775,
          "elevation": 988.2
      },
      "Statuses": [
          {
              "climbed": false,
              "wishlist": false
          }
      ]
  },
  {
      "id": 146,
      "name": "Creag Meagaidh",
      "imageUrl": "https://picsum.photos/200",
      "createdAt": "2021-06-28T10:58:52.105Z",
      "updatedAt": "2021-06-28T10:58:52.105Z",
      "Peak": {
          "latitude": 56.95202,
          "longitude": -4.60212,
          "elevation": 1128.1
      },
      "Statuses": [
          {
              "climbed": false,
              "wishlist": false
          }
      ]
  },
  {
      "id": 147,
      "name": "Creag Mhor",
      "imageUrl": "https://picsum.photos/200",
      "createdAt": "2021-06-28T10:58:52.105Z",
      "updatedAt": "2021-06-28T10:58:52.105Z",
      "Peak": {
          "latitude": 56.48952,
          "longitude": -4.61404,
          "elevation": 1046.8
      },
      "Statuses": [
          {
              "climbed": false,
              "wishlist": false
          }
      ]
  },
  {
      "id": 148,
      "name": "Creag nan Damh",
      "imageUrl": "https://picsum.photos/200",
      "createdAt": "2021-06-28T10:58:52.105Z",
      "updatedAt": "2021-06-28T10:58:52.105Z",
      "Peak": {
          "latitude": 57.14726,
          "longitude": -5.33496,
          "elevation": 917.2
      },
      "Statuses": [
          {
              "climbed": false,
              "wishlist": false
          }
      ]
  },
  {
      "id": 149,
      "name": "Creag Pitridh",
      "imageUrl": "https://picsum.photos/200",
      "createdAt": "2021-06-28T10:58:52.105Z",
      "updatedAt": "2021-06-28T10:58:52.105Z",
      "Peak": {
          "latitude": 56.89971,
          "longitude": -4.48496,
          "elevation": 924
      },
      "Statuses": [
          {
              "climbed": false,
              "wishlist": false
          }
      ]
  },
  {
      "id": 150,
      "name": "Creise",
      "imageUrl": "https://picsum.photos/200",
      "createdAt": "2021-06-28T10:58:52.105Z",
      "updatedAt": "2021-06-28T10:58:52.105Z",
      "Peak": {
          "latitude": 56.61445,
          "longitude": -4.87199,
          "elevation": 1099.8
      },
      "Statuses": [
          {
              "climbed": false,
              "wishlist": false
          }
      ]
  },
  {
      "id": 151,
      "name": "Cruach Ardrain",
      "imageUrl": "https://picsum.photos/200",
      "createdAt": "2021-06-28T10:58:52.105Z",
      "updatedAt": "2021-06-28T10:58:52.105Z",
      "Peak": {
          "latitude": 56.35643,
          "longitude": -4.57615,
          "elevation": 1045.9
      },
      "Statuses": [
          {
              "climbed": false,
              "wishlist": false
          }
      ]
  },
  {
      "id": 152,
      "name": "Derry Cairngorm",
      "imageUrl": "https://picsum.photos/200",
      "createdAt": "2021-06-28T10:58:52.105Z",
      "updatedAt": "2021-06-28T10:58:52.105Z",
      "Peak": {
          "latitude": 57.0628,
          "longitude": -3.622,
          "elevation": 1155
      },
      "Statuses": [
          {
              "climbed": false,
              "wishlist": false
          }
      ]
  },
  {
      "id": 153,
      "name": "Driesh",
      "imageUrl": "https://picsum.photos/200",
      "createdAt": "2021-06-28T10:58:52.105Z",
      "updatedAt": "2021-06-28T10:58:52.105Z",
      "Peak": {
          "latitude": 56.84799,
          "longitude": -3.19654,
          "elevation": 947
      },
      "Statuses": [
          {
              "climbed": false,
              "wishlist": false
          }
      ]
  },
  {
      "id": 154,
      "name": "Druim Shionnach",
      "imageUrl": "https://picsum.photos/200",
      "createdAt": "2021-06-28T10:58:52.105Z",
      "updatedAt": "2021-06-28T10:58:52.105Z",
      "Peak": {
          "latitude": 57.12679,
          "longitude": -5.18284,
          "elevation": 985.2
      },
      "Statuses": [
          {
              "climbed": false,
              "wishlist": false
          }
      ]
  },
  {
      "id": 155,
      "name": "Eididh nan Clach Geala",
      "imageUrl": "https://picsum.photos/200",
      "createdAt": "2021-06-28T10:58:52.105Z",
      "updatedAt": "2021-06-28T10:58:52.105Z",
      "Peak": {
          "latitude": 57.8135,
          "longitude": -4.9342,
          "elevation": 927
      },
      "Statuses": [
          {
              "climbed": false,
              "wishlist": false
          }
      ]
  },
  {
      "id": 156,
      "name": "Fionn Bheinn",
      "imageUrl": "https://picsum.photos/200",
      "createdAt": "2021-06-28T10:58:52.105Z",
      "updatedAt": "2021-06-28T10:58:52.105Z",
      "Peak": {
          "latitude": 57.61115,
          "longitude": -5.10271,
          "elevation": 933
      },
      "Statuses": [
          {
              "climbed": false,
              "wishlist": false
          }
      ]
  },
  {
      "id": 157,
      "name": "Gairich",
      "imageUrl": "https://picsum.photos/200",
      "createdAt": "2021-06-28T10:58:52.105Z",
      "updatedAt": "2021-06-28T10:58:52.105Z",
      "Peak": {
          "latitude": 57.04488,
          "longitude": -5.25583,
          "elevation": 919
      },
      "Statuses": [
          {
              "climbed": false,
              "wishlist": false
          }
      ]
  },
  {
      "id": 158,
      "name": "Garbh Chioch Mhor",
      "imageUrl": "https://picsum.photos/200",
      "createdAt": "2021-06-28T10:58:52.105Z",
      "updatedAt": "2021-06-28T10:58:52.105Z",
      "Peak": {
          "latitude": 57.00856,
          "longitude": -5.44432,
          "elevation": 1012.9
      },
      "Statuses": [
          {
              "climbed": false,
              "wishlist": false
          }
      ]
  },
  {
      "id": 159,
      "name": "Geal Charn",
      "imageUrl": "https://picsum.photos/200",
      "createdAt": "2021-06-28T10:58:52.105Z",
      "updatedAt": "2021-06-28T10:58:52.105Z",
      "Peak": {
          "latitude": 56.89776,
          "longitude": -4.45724,
          "elevation": 1049
      },
      "Statuses": [
          {
              "climbed": false,
              "wishlist": false
          }
      ]
  },
  {
      "id": 160,
      "name": "Geal Charn",
      "imageUrl": "https://picsum.photos/200",
      "createdAt": "2021-06-28T10:58:52.105Z",
      "updatedAt": "2021-06-28T10:58:52.105Z",
      "Peak": {
          "latitude": 57.05742,
          "longitude": -4.37357,
          "elevation": 926
      },
      "Statuses": [
          {
              "climbed": false,
              "wishlist": false
          }
      ]
  },
  {
      "id": 161,
      "name": "Geal-charn",
      "imageUrl": "https://picsum.photos/200",
      "createdAt": "2021-06-28T10:58:52.105Z",
      "updatedAt": "2021-06-28T10:58:52.105Z",
      "Peak": {
          "latitude": 56.83784,
          "longitude": -4.50969,
          "elevation": 1132
      },
      "Statuses": [
          {
              "climbed": false,
              "wishlist": false
          }
      ]
  },
  {
      "id": 162,
      "name": "Geal-charn",
      "imageUrl": "https://picsum.photos/200",
      "createdAt": "2021-06-28T10:58:52.105Z",
      "updatedAt": "2021-06-28T10:58:52.105Z",
      "Peak": {
          "latitude": 56.87443,
          "longitude": -4.30452,
          "elevation": 917.1
      },
      "Statuses": [
          {
              "climbed": false,
              "wishlist": false
          }
      ]
  },
  {
      "id": 163,
      "name": "Glas Bheinn Mhor",
      "imageUrl": "https://picsum.photos/200",
      "createdAt": "2021-06-28T10:58:52.105Z",
      "updatedAt": "2021-06-28T10:58:52.105Z",
      "Peak": {
          "latitude": 56.54242,
          "longitude": -5.00527,
          "elevation": 997.7
      },
      "Statuses": [
          {
              "climbed": false,
              "wishlist": false
          }
      ]
  },
  {
      "id": 164,
      "name": "Glas Maol",
      "imageUrl": "https://picsum.photos/200",
      "createdAt": "2021-06-28T10:58:52.105Z",
      "updatedAt": "2021-06-28T10:58:52.105Z",
      "Peak": {
          "latitude": 56.87306,
          "longitude": -3.36824,
          "elevation": 1068
      },
      "Statuses": [
          {
              "climbed": false,
              "wishlist": false
          }
      ]
  },
  {
      "id": 165,
      "name": "Glas Tulaichean",
      "imageUrl": "https://picsum.photos/200",
      "createdAt": "2021-06-28T10:58:52.105Z",
      "updatedAt": "2021-06-28T10:58:52.105Z",
      "Peak": {
          "latitude": 56.86576,
          "longitude": -3.55816,
          "elevation": 1051
      },
      "Statuses": [
          {
              "climbed": false,
              "wishlist": false
          }
      ]
  },
  {
      "id": 166,
      "name": "Gleouraich",
      "imageUrl": "https://picsum.photos/200",
      "createdAt": "2021-06-28T10:58:52.105Z",
      "updatedAt": "2021-06-28T10:58:52.105Z",
      "Peak": {
          "latitude": 57.09716,
          "longitude": -5.23804,
          "elevation": 1035
      },
      "Statuses": [
          {
              "climbed": false,
              "wishlist": false
          }
      ]
  },
  {
      "id": 167,
      "name": "Gulvain (Gaor Bheinn)",
      "imageUrl": "https://picsum.photos/200",
      "createdAt": "2021-06-28T10:58:52.105Z",
      "updatedAt": "2021-06-28T10:58:52.105Z",
      "Peak": {
          "latitude": 56.93621,
          "longitude": -5.28451,
          "elevation": 987
      },
      "Statuses": [
          {
              "climbed": false,
              "wishlist": false
          }
      ]
  },
  {
      "id": 168,
      "name": "Ladhar Bheinn",
      "imageUrl": "https://picsum.photos/200",
      "createdAt": "2021-06-28T10:58:52.105Z",
      "updatedAt": "2021-06-28T10:58:52.105Z",
      "Peak": {
          "latitude": 57.07526,
          "longitude": -5.59175,
          "elevation": 1020
      },
      "Statuses": [
          {
              "climbed": false,
              "wishlist": false
          }
      ]
  },
  {
      "id": 169,
      "name": "Liathach-Mullach an Rathain",
      "imageUrl": "https://picsum.photos/200",
      "createdAt": "2021-06-28T10:58:52.105Z",
      "updatedAt": "2021-06-28T10:58:52.105Z",
      "Peak": {
          "latitude": 57.56088,
          "longitude": -5.4925,
          "elevation": 1023.8
      },
      "Statuses": [
          {
              "climbed": false,
              "wishlist": false
          }
      ]
  },
  {
      "id": 170,
      "name": "Liathach-Spidean a' Choire Leith",
      "imageUrl": "https://picsum.photos/200",
      "createdAt": "2021-06-28T10:58:52.105Z",
      "updatedAt": "2021-06-28T10:58:52.105Z",
      "Peak": {
          "latitude": 57.56419,
          "longitude": -5.46361,
          "elevation": 1054.8
      },
      "Statuses": [
          {
              "climbed": false,
              "wishlist": false
          }
      ]
  },
  {
      "id": 171,
      "name": "Lochnagar-Cac Carn Beag",
      "imageUrl": "https://picsum.photos/200",
      "createdAt": "2021-06-28T10:58:52.105Z",
      "updatedAt": "2021-06-28T10:58:52.105Z",
      "Peak": {
          "latitude": 56.96027,
          "longitude": -3.24526,
          "elevation": 1155.7
      },
      "Statuses": [
          {
              "climbed": false,
              "wishlist": false
          }
      ]
  },
  {
      "id": 172,
      "name": "Luinne Bheinn",
      "imageUrl": "https://picsum.photos/200",
      "createdAt": "2021-06-28T10:58:52.105Z",
      "updatedAt": "2021-06-28T10:58:52.105Z",
      "Peak": {
          "latitude": 57.04833,
          "longitude": -5.51361,
          "elevation": 939
      },
      "Statuses": [
          {
              "climbed": false,
              "wishlist": false
          }
      ]
  },
  {
      "id": 173,
      "name": "Lurg Mhor",
      "imageUrl": "https://picsum.photos/200",
      "createdAt": "2021-06-28T10:58:52.105Z",
      "updatedAt": "2021-06-28T10:58:52.105Z",
      "Peak": {
          "latitude": 57.41309,
          "longitude": -5.22367,
          "elevation": 987
      },
      "Statuses": [
          {
              "climbed": false,
              "wishlist": false
          }
      ]
  },
  {
      "id": 174,
      "name": "Mam Sodhail",
      "imageUrl": "https://picsum.photos/200",
      "createdAt": "2021-06-28T10:58:52.105Z",
      "updatedAt": "2021-06-28T10:58:52.105Z",
      "Peak": {
          "latitude": 57.2798,
          "longitude": -5.12027,
          "elevation": 1179.4
      },
      "Statuses": [
          {
              "climbed": false,
              "wishlist": false
          }
      ]
  },
  {
      "id": 175,
      "name": "Maoile Lunndaidh",
      "imageUrl": "https://picsum.photos/200",
      "createdAt": "2021-06-28T10:58:52.105Z",
      "updatedAt": "2021-06-28T10:58:52.105Z",
      "Peak": {
          "latitude": 57.46448,
          "longitude": -5.111,
          "elevation": 1004.9
      },
      "Statuses": [
          {
              "climbed": false,
              "wishlist": false
          }
      ]
  },
  {
      "id": 176,
      "name": "Maol Chean-dearg",
      "imageUrl": "https://picsum.photos/200",
      "createdAt": "2021-06-28T10:58:52.105Z",
      "updatedAt": "2021-06-28T10:58:52.105Z",
      "Peak": {
          "latitude": 57.4917,
          "longitude": -5.46555,
          "elevation": 933
      },
      "Statuses": [
          {
              "climbed": false,
              "wishlist": false
          }
      ]
  },
  {
      "id": 177,
      "name": "Maol Chinn-dearg",
      "imageUrl": "https://picsum.photos/200",
      "createdAt": "2021-06-28T10:58:52.105Z",
      "updatedAt": "2021-06-28T10:58:52.105Z",
      "Peak": {
          "latitude": 57.12756,
          "longitude": -5.25265,
          "elevation": 980.3
      },
      "Statuses": [
          {
              "climbed": false,
              "wishlist": false
          }
      ]
  },
  {
      "id": 178,
      "name": "Mayar",
      "imageUrl": "https://picsum.photos/200",
      "createdAt": "2021-06-28T10:58:52.105Z",
      "updatedAt": "2021-06-28T10:58:52.105Z",
      "Peak": {
          "latitude": 56.84894,
          "longitude": -3.2463,
          "elevation": 928
      },
      "Statuses": [
          {
              "climbed": false,
              "wishlist": false
          }
      ]
  },
  {
      "id": 179,
      "name": "Meall a' Bhuiridh",
      "imageUrl": "https://picsum.photos/200",
      "createdAt": "2021-06-28T10:58:52.105Z",
      "updatedAt": "2021-06-28T10:58:52.105Z",
      "Peak": {
          "latitude": 56.61222,
          "longitude": -4.85213,
          "elevation": 1107.9
      },
      "Statuses": [
          {
              "climbed": false,
              "wishlist": false
          }
      ]
  },
  {
      "id": 180,
      "name": "Meall a' Choire Leith",
      "imageUrl": "https://picsum.photos/200",
      "createdAt": "2021-06-28T10:58:52.105Z",
      "updatedAt": "2021-06-28T10:58:52.105Z",
      "Peak": {
          "latitude": 56.56631,
          "longitude": -4.25962,
          "elevation": 925.6
      },
      "Statuses": [
          {
              "climbed": false,
              "wishlist": false
          }
      ]
  },
  {
      "id": 181,
      "name": "Meall a' Chrasgaidh",
      "imageUrl": "https://picsum.photos/200",
      "createdAt": "2021-06-28T10:58:52.105Z",
      "updatedAt": "2021-06-28T10:58:52.105Z",
      "Peak": {
          "latitude": 57.71287,
          "longitude": -5.04874,
          "elevation": 934
      },
      "Statuses": [
          {
              "climbed": false,
              "wishlist": false
          }
      ]
  },
  {
      "id": 182,
      "name": "Meall Buidhe",
      "imageUrl": "https://picsum.photos/200",
      "createdAt": "2021-06-28T10:58:52.105Z",
      "updatedAt": "2021-06-28T10:58:52.105Z",
      "Peak": {
          "latitude": 57.03155,
          "longitude": -5.54633,
          "elevation": 946
      },
      "Statuses": [
          {
              "climbed": false,
              "wishlist": false
          }
      ]
  },
  {
      "id": 183,
      "name": "Meall Buidhe",
      "imageUrl": "https://picsum.photos/200",
      "createdAt": "2021-06-28T10:58:52.105Z",
      "updatedAt": "2021-06-28T10:58:52.105Z",
      "Peak": {
          "latitude": 56.61722,
          "longitude": -4.44864,
          "elevation": 932.1
      },
      "Statuses": [
          {
              "climbed": false,
              "wishlist": false
          }
      ]
  },
  {
      "id": 184,
      "name": "Meall Chuaich",
      "imageUrl": "https://picsum.photos/200",
      "createdAt": "2021-06-28T10:58:52.105Z",
      "updatedAt": "2021-06-28T10:58:52.105Z",
      "Peak": {
          "latitude": 56.96385,
          "longitude": -4.11257,
          "elevation": 951
      },
      "Statuses": [
          {
              "climbed": false,
              "wishlist": false
          }
      ]
  },
  {
      "id": 185,
      "name": "Meall Corranaich",
      "imageUrl": "https://picsum.photos/200",
      "createdAt": "2021-06-28T10:58:52.105Z",
      "updatedAt": "2021-06-28T10:58:52.105Z",
      "Peak": {
          "latitude": 56.54095,
          "longitude": -4.25347,
          "elevation": 1069
      },
      "Statuses": [
          {
              "climbed": false,
              "wishlist": false
          }
      ]
  },
  {
      "id": 186,
      "name": "Meall Garbh",
      "imageUrl": "https://picsum.photos/200",
      "createdAt": "2021-06-28T10:58:52.105Z",
      "updatedAt": "2021-06-28T10:58:52.105Z",
      "Peak": {
          "latitude": 56.56612,
          "longitude": -4.20771,
          "elevation": 1123.1
      },
      "Statuses": [
          {
              "climbed": false,
              "wishlist": false
          }
      ]
  },
  {
      "id": 187,
      "name": "Meall Garbh",
      "imageUrl": "https://picsum.photos/200",
      "createdAt": "2021-06-28T10:58:52.105Z",
      "updatedAt": "2021-06-28T10:58:52.105Z",
      "Peak": {
          "latitude": 56.63738,
          "longitude": -4.20747,
          "elevation": 968
      },
      "Statuses": [
          {
              "climbed": false,
              "wishlist": false
          }
      ]
  },
  {
      "id": 188,
      "name": "Meall Ghaordaidh",
      "imageUrl": "https://picsum.photos/200",
      "createdAt": "2021-06-28T10:58:52.105Z",
      "updatedAt": "2021-06-28T10:58:52.105Z",
      "Peak": {
          "latitude": 56.52581,
          "longitude": -4.41665,
          "elevation": 1039.8
      },
      "Statuses": [
          {
              "climbed": false,
              "wishlist": false
          }
      ]
  },
  {
      "id": 189,
      "name": "Meall Glas",
      "imageUrl": "https://picsum.photos/200",
      "createdAt": "2021-06-28T10:58:52.105Z",
      "updatedAt": "2021-06-28T10:58:52.105Z",
      "Peak": {
          "latitude": 56.45571,
          "longitude": -4.54682,
          "elevation": 959
      },
      "Statuses": [
          {
              "climbed": false,
              "wishlist": false
          }
      ]
  },
  {
      "id": 190,
      "name": "Meall Gorm",
      "imageUrl": "https://picsum.photos/200",
      "createdAt": "2021-06-28T10:58:52.105Z",
      "updatedAt": "2021-06-28T10:58:52.105Z",
      "Peak": {
          "latitude": 57.68084,
          "longitude": -4.9838,
          "elevation": 949.7
      },
      "Statuses": [
          {
              "climbed": false,
              "wishlist": false
          }
      ]
  },
  {
      "id": 191,
      "name": "Meall Greigh",
      "imageUrl": "https://picsum.photos/200",
      "createdAt": "2021-06-28T10:58:52.105Z",
      "updatedAt": "2021-06-28T10:58:52.105Z",
      "Peak": {
          "latitude": 56.56743,
          "longitude": -4.15956,
          "elevation": 1001
      },
      "Statuses": [
          {
              "climbed": false,
              "wishlist": false
          }
      ]
  },
  {
      "id": 192,
      "name": "Meall na Aighean",
      "imageUrl": "https://picsum.photos/200",
      "createdAt": "2021-06-28T10:58:52.105Z",
      "updatedAt": "2021-06-28T10:58:52.105Z",
      "Peak": {
          "latitude": 56.62063,
          "longitude": -4.12874,
          "elevation": 981
      },
      "Statuses": [
          {
              "climbed": false,
              "wishlist": false
          }
      ]
  },
  {
      "id": 193,
      "name": "Meall na Teanga",
      "imageUrl": "https://picsum.photos/200",
      "createdAt": "2021-06-28T10:58:52.105Z",
      "updatedAt": "2021-06-28T10:58:52.105Z",
      "Peak": {
          "latitude": 56.98901,
          "longitude": -4.93096,
          "elevation": 916.8
      },
      "Statuses": [
          {
              "climbed": false,
              "wishlist": false
          }
      ]
  },
  {
      "id": 194,
      "name": "Meall nan Ceapraichean",
      "imageUrl": "https://picsum.photos/200",
      "createdAt": "2021-06-28T10:58:52.105Z",
      "updatedAt": "2021-06-28T10:58:52.105Z",
      "Peak": {
          "latitude": 57.79851,
          "longitude": -4.93401,
          "elevation": 977
      },
      "Statuses": [
          {
              "climbed": false,
              "wishlist": false
          }
      ]
  },
  {
      "id": 195,
      "name": "Meall nan Eun",
      "imageUrl": "https://picsum.photos/200",
      "createdAt": "2021-06-28T10:58:52.105Z",
      "updatedAt": "2021-06-28T10:58:52.105Z",
      "Peak": {
          "latitude": 56.56118,
          "longitude": -4.94293,
          "elevation": 928
      },
      "Statuses": [
          {
              "climbed": false,
              "wishlist": false
          }
      ]
  },
  {
      "id": 196,
      "name": "Meall nan Tarmachan",
      "imageUrl": "https://picsum.photos/200",
      "createdAt": "2021-06-28T10:58:52.105Z",
      "updatedAt": "2021-06-28T10:58:52.105Z",
      "Peak": {
          "latitude": 56.52166,
          "longitude": -4.30134,
          "elevation": 1043.6
      },
      "Statuses": [
          {
              "climbed": false,
              "wishlist": false
          }
      ]
  },
  {
      "id": 197,
      "name": "Monadh Mor",
      "imageUrl": "https://picsum.photos/200",
      "createdAt": "2021-06-28T10:58:52.105Z",
      "updatedAt": "2021-06-28T10:58:52.105Z",
      "Peak": {
          "latitude": 57.02679,
          "longitude": -3.75009,
          "elevation": 1113
      },
      "Statuses": [
          {
              "climbed": false,
              "wishlist": false
          }
      ]
  },
  {
      "id": 198,
      "name": "Moruisg",
      "imageUrl": "https://picsum.photos/200",
      "createdAt": "2021-06-28T10:58:52.105Z",
      "updatedAt": "2021-06-28T10:58:52.105Z",
      "Peak": {
          "latitude": 57.49971,
          "longitude": -5.17063,
          "elevation": 928
      },
      "Statuses": [
          {
              "climbed": false,
              "wishlist": false
          }
      ]
  },
  {
      "id": 199,
      "name": "Mount Keen",
      "imageUrl": "https://picsum.photos/200",
      "createdAt": "2021-06-28T10:58:52.105Z",
      "updatedAt": "2021-06-28T10:58:52.105Z",
      "Peak": {
          "latitude": 56.96975,
          "longitude": -2.97362,
          "elevation": 939
      },
      "Statuses": [
          {
              "climbed": false,
              "wishlist": false
          }
      ]
  },
  {
      "id": 200,
      "name": "Mullach Clach a' Bhlair",
      "imageUrl": "https://picsum.photos/200",
      "createdAt": "2021-06-28T10:58:52.105Z",
      "updatedAt": "2021-06-28T10:58:52.105Z",
      "Peak": {
          "latitude": 57.01188,
          "longitude": -3.84129,
          "elevation": 1019
      },
      "Statuses": [
          {
              "climbed": false,
              "wishlist": false
          }
      ]
  },
  {
      "id": 201,
      "name": "Mullach Coire Mhic Fhearchair",
      "imageUrl": "https://picsum.photos/200",
      "createdAt": "2021-06-28T10:58:52.105Z",
      "updatedAt": "2021-06-28T10:58:52.105Z",
      "Peak": {
          "latitude": 57.70902,
          "longitude": -5.27134,
          "elevation": 1015.2
      },
      "Statuses": [
          {
              "climbed": false,
              "wishlist": false
          }
      ]
  },
  {
      "id": 202,
      "name": "Mullach Fraoch-choire",
      "imageUrl": "https://picsum.photos/200",
      "createdAt": "2021-06-28T10:58:52.105Z",
      "updatedAt": "2021-06-28T10:58:52.105Z",
      "Peak": {
          "latitude": 57.20538,
          "longitude": -5.15565,
          "elevation": 1102
      },
      "Statuses": [
          {
              "climbed": false,
              "wishlist": false
          }
      ]
  },
  {
      "id": 203,
      "name": "Mullach na Dheiragain",
      "imageUrl": "https://picsum.photos/200",
      "createdAt": "2021-06-28T10:58:52.105Z",
      "updatedAt": "2021-06-28T10:58:52.105Z",
      "Peak": {
          "latitude": 57.2834,
          "longitude": -5.18635,
          "elevation": 982
      },
      "Statuses": [
          {
              "climbed": false,
              "wishlist": false
          }
      ]
  },
  {
      "id": 204,
      "name": "Mullach nan Coirean",
      "imageUrl": "https://picsum.photos/200",
      "createdAt": "2021-06-28T10:58:52.105Z",
      "updatedAt": "2021-06-28T10:58:52.105Z",
      "Peak": {
          "latitude": 56.74987,
          "longitude": -5.07245,
          "elevation": 939.3
      },
      "Statuses": [
          {
              "climbed": false,
              "wishlist": false
          }
      ]
  },
  {
      "id": 205,
      "name": "Na Gruagaichean",
      "imageUrl": "https://picsum.photos/200",
      "createdAt": "2021-06-28T10:58:52.105Z",
      "updatedAt": "2021-06-28T10:58:52.105Z",
      "Peak": {
          "latitude": 56.74369,
          "longitude": -4.93988,
          "elevation": 1054.3
      },
      "Statuses": [
          {
              "climbed": false,
              "wishlist": false
          }
      ]
  },
  {
      "id": 206,
      "name": "Ruadh Stac Mor",
      "imageUrl": "https://picsum.photos/200",
      "createdAt": "2021-06-28T10:58:52.105Z",
      "updatedAt": "2021-06-28T10:58:52.105Z",
      "Peak": {
          "latitude": 57.72678,
          "longitude": -5.32929,
          "elevation": 918.7
      },
      "Statuses": [
          {
              "climbed": false,
              "wishlist": false
          }
      ]
  },
  {
      "id": 207,
      "name": "Sail Chaorainn",
      "imageUrl": "https://picsum.photos/200",
      "createdAt": "2021-06-28T10:58:52.105Z",
      "updatedAt": "2021-06-28T10:58:52.105Z",
      "Peak": {
          "latitude": 57.19162,
          "longitude": -5.0912,
          "elevation": 999.2
      },
      "Statuses": [
          {
              "climbed": false,
              "wishlist": false
          }
      ]
  },
  {
      "id": 208,
      "name": "Saileag",
      "imageUrl": "https://picsum.photos/200",
      "createdAt": "2021-06-28T10:58:52.105Z",
      "updatedAt": "2021-06-28T10:58:52.105Z",
      "Peak": {
          "latitude": 57.18126,
          "longitude": -5.28133,
          "elevation": 956
      },
      "Statuses": [
          {
              "climbed": false,
              "wishlist": false
          }
      ]
  },
  {
      "id": 209,
      "name": "Schiehallion",
      "imageUrl": "https://picsum.photos/200",
      "createdAt": "2021-06-28T10:58:52.105Z",
      "updatedAt": "2021-06-28T10:58:52.105Z",
      "Peak": {
          "latitude": 56.66693,
          "longitude": -4.10023,
          "elevation": 1083
      },
      "Statuses": [
          {
              "climbed": false,
              "wishlist": false
          }
      ]
  },
  {
      "id": 210,
      "name": "Seana Bhraigh",
      "imageUrl": "https://picsum.photos/200",
      "createdAt": "2021-06-28T10:58:52.105Z",
      "updatedAt": "2021-06-28T10:58:52.105Z",
      "Peak": {
          "latitude": 57.84733,
          "longitude": -4.89662,
          "elevation": 926
      },
      "Statuses": [
          {
              "climbed": false,
              "wishlist": false
          }
      ]
  },
  {
      "id": 211,
      "name": "Sgairneach Mhor",
      "imageUrl": "https://picsum.photos/200",
      "createdAt": "2021-06-28T10:58:52.105Z",
      "updatedAt": "2021-06-28T10:58:52.105Z",
      "Peak": {
          "latitude": 56.82845,
          "longitude": -4.29779,
          "elevation": 991
      },
      "Statuses": [
          {
              "climbed": false,
              "wishlist": false
          }
      ]
  },
  {
      "id": 212,
      "name": "Sgiath Chuil",
      "imageUrl": "https://picsum.photos/200",
      "createdAt": "2021-06-28T10:58:52.105Z",
      "updatedAt": "2021-06-28T10:58:52.105Z",
      "Peak": {
          "latitude": 56.45315,
          "longitude": -4.49565,
          "elevation": 920.1
      },
      "Statuses": [
          {
              "climbed": false,
              "wishlist": false
          }
      ]
  },
  {
      "id": 213,
      "name": "Sgor an Lochain Uaine",
      "imageUrl": "https://picsum.photos/200",
      "createdAt": "2021-06-28T10:58:52.105Z",
      "updatedAt": "2021-06-28T10:58:52.105Z",
      "Peak": {
          "latitude": 57.05837,
          "longitude": -3.7259,
          "elevation": 1258
      },
      "Statuses": [
          {
              "climbed": false,
              "wishlist": false
          }
      ]
  },
  {
      "id": 214,
      "name": "Sgor Gaibhre",
      "imageUrl": "https://picsum.photos/200",
      "createdAt": "2021-06-28T10:58:52.105Z",
      "updatedAt": "2021-06-28T10:58:52.105Z",
      "Peak": {
          "latitude": 56.77255,
          "longitude": -4.5465,
          "elevation": 955
      },
      "Statuses": [
          {
              "climbed": false,
              "wishlist": false
          }
      ]
  },
  {
      "id": 215,
      "name": "Sgor Gaoith",
      "imageUrl": "https://picsum.photos/200",
      "createdAt": "2021-06-28T10:58:52.105Z",
      "updatedAt": "2021-06-28T10:58:52.105Z",
      "Peak": {
          "latitude": 57.06856,
          "longitude": -3.81086,
          "elevation": 1118
      },
      "Statuses": [
          {
              "climbed": false,
              "wishlist": false
          }
      ]
  },
  {
      "id": 216,
      "name": "Sgorr Ruadh",
      "imageUrl": "https://picsum.photos/200",
      "createdAt": "2021-06-28T10:58:52.105Z",
      "updatedAt": "2021-06-28T10:58:52.105Z",
      "Peak": {
          "latitude": 57.49862,
          "longitude": -5.40775,
          "elevation": 960.7
      },
      "Statuses": [
          {
              "climbed": false,
              "wishlist": false
          }
      ]
  },
  {
      "id": 217,
      "name": "Sgurr a' Bhealaich Dheirg",
      "imageUrl": "https://picsum.photos/200",
      "createdAt": "2021-06-28T10:58:52.105Z",
      "updatedAt": "2021-06-28T10:58:52.105Z",
      "Peak": {
          "latitude": 57.17783,
          "longitude": -5.25218,
          "elevation": 1036
      },
      "Statuses": [
          {
              "climbed": false,
              "wishlist": false
          }
      ]
  },
  {
      "id": 218,
      "name": "Sgurr a' Chaorachain",
      "imageUrl": "https://picsum.photos/200",
      "createdAt": "2021-06-28T10:58:52.105Z",
      "updatedAt": "2021-06-28T10:58:52.105Z",
      "Peak": {
          "latitude": 57.4525,
          "longitude": -5.1893,
          "elevation": 1053
      },
      "Statuses": [
          {
              "climbed": false,
              "wishlist": false
          }
      ]
  },
  {
      "id": 219,
      "name": "Sgurr a' Choire Ghlais",
      "imageUrl": "https://picsum.photos/200",
      "createdAt": "2021-06-28T10:58:52.105Z",
      "updatedAt": "2021-06-28T10:58:52.105Z",
      "Peak": {
          "latitude": 57.44429,
          "longitude": -4.90376,
          "elevation": 1083
      },
      "Statuses": [
          {
              "climbed": false,
              "wishlist": false
          }
      ]
  },
  {
      "id": 220,
      "name": "Sgurr a' Ghreadaidh",
      "imageUrl": "https://picsum.photos/200",
      "createdAt": "2021-06-28T10:58:52.105Z",
      "updatedAt": "2021-06-28T10:58:52.105Z",
      "Peak": {
          "latitude": 57.22731,
          "longitude": -6.23443,
          "elevation": 972.1
      },
      "Statuses": [
          {
              "climbed": false,
              "wishlist": false
          }
      ]
  },
  {
      "id": 221,
      "name": "Sgurr a' Mhadaidh",
      "imageUrl": "https://picsum.photos/200",
      "createdAt": "2021-06-28T10:58:52.105Z",
      "updatedAt": "2021-06-28T10:58:52.105Z",
      "Peak": {
          "latitude": 57.23087,
          "longitude": -6.23193,
          "elevation": 918
      },
      "Statuses": [
          {
              "climbed": false,
              "wishlist": false
          }
      ]
  },
  {
      "id": 222,
      "name": "Sgurr a' Mhaim",
      "imageUrl": "https://picsum.photos/200",
      "createdAt": "2021-06-28T10:58:52.105Z",
      "updatedAt": "2021-06-28T10:58:52.105Z",
      "Peak": {
          "latitude": 56.75592,
          "longitude": -5.00369,
          "elevation": 1099
      },
      "Statuses": [
          {
              "climbed": false,
              "wishlist": false
          }
      ]
  },
  {
      "id": 223,
      "name": "Sgurr a' Mhaoraich",
      "imageUrl": "https://picsum.photos/200",
      "createdAt": "2021-06-28T10:58:52.105Z",
      "updatedAt": "2021-06-28T10:58:52.105Z",
      "Peak": {
          "latitude": 57.10585,
          "longitude": -5.33051,
          "elevation": 1027
      },
      "Statuses": [
          {
              "climbed": false,
              "wishlist": false
          }
      ]
  },
  {
      "id": 224,
      "name": "Sgurr Alasdair",
      "imageUrl": "https://picsum.photos/200",
      "createdAt": "2021-06-28T10:58:52.105Z",
      "updatedAt": "2021-06-28T10:58:52.105Z",
      "Peak": {
          "latitude": 57.20659,
          "longitude": -6.22418,
          "elevation": 992
      },
      "Statuses": [
          {
              "climbed": false,
              "wishlist": false
          }
      ]
  },
  {
      "id": 225,
      "name": "Sgurr an Doire Leathain",
      "imageUrl": "https://picsum.photos/200",
      "createdAt": "2021-06-28T10:58:52.105Z",
      "updatedAt": "2021-06-28T10:58:52.105Z",
      "Peak": {
          "latitude": 57.13688,
          "longitude": -5.28153,
          "elevation": 1010
      },
      "Statuses": [
          {
              "climbed": false,
              "wishlist": false
          }
      ]
  },
  {
      "id": 226,
      "name": "Sgurr an Lochain",
      "imageUrl": "https://picsum.photos/200",
      "createdAt": "2021-06-28T10:58:52.105Z",
      "updatedAt": "2021-06-28T10:58:52.105Z",
      "Peak": {
          "latitude": 57.1413,
          "longitude": -5.29748,
          "elevation": 1004
      },
      "Statuses": [
          {
              "climbed": false,
              "wishlist": false
          }
      ]
  },
  {
      "id": 227,
      "name": "Sgurr Ban",
      "imageUrl": "https://picsum.photos/200",
      "createdAt": "2021-06-28T10:58:52.105Z",
      "updatedAt": "2021-06-28T10:58:52.105Z",
      "Peak": {
          "latitude": 57.71854,
          "longitude": -5.2659,
          "elevation": 989
      },
      "Statuses": [
          {
              "climbed": false,
              "wishlist": false
          }
      ]
  },
  {
      "id": 228,
      "name": "Sgurr Breac",
      "imageUrl": "https://picsum.photos/200",
      "createdAt": "2021-06-28T10:58:52.105Z",
      "updatedAt": "2021-06-28T10:58:52.105Z",
      "Peak": {
          "latitude": 57.69194,
          "longitude": -5.09131,
          "elevation": 999.6
      },
      "Statuses": [
          {
              "climbed": false,
              "wishlist": false
          }
      ]
  },
  {
      "id": 229,
      "name": "Sgurr Choinnich",
      "imageUrl": "https://picsum.photos/200",
      "createdAt": "2021-06-28T10:58:52.105Z",
      "updatedAt": "2021-06-28T10:58:52.105Z",
      "Peak": {
          "latitude": 57.45103,
          "longitude": -5.20792,
          "elevation": 999.3
      },
      "Statuses": [
          {
              "climbed": false,
              "wishlist": false
          }
      ]
  },
  {
      "id": 230,
      "name": "Sgurr Choinnich Mor",
      "imageUrl": "https://picsum.photos/200",
      "createdAt": "2021-06-28T10:58:52.105Z",
      "updatedAt": "2021-06-28T10:58:52.105Z",
      "Peak": {
          "latitude": 56.80043,
          "longitude": -4.90396,
          "elevation": 1094
      },
      "Statuses": [
          {
              "climbed": false,
              "wishlist": false
          }
      ]
  },